region,county,state,risk_score,lat,lon
"Abbeville, SC",Abbeville,SC,294.4428355337867,34.2226,-82.4593
"Acadia Parish, LA",Acadia Parish,LA,1012.0445619561574,30.2906,-92.412
"Accomack, VA",Accomack,VA,358.04347234566853,37.7644,-75.6334
"Ada, ID",Ada,ID,2022.6516621865878,43.4512,-116.2412
"Adair, IA",Adair,IA,67.03981685644831,41.3307,-94.471
"Adair, KY",Adair,KY,219.44240570155705,37.1042,-85.2806
"Adair, MO",Adair,MO,151.24792588772814,40.1906,-92.6007
"Adair, OK",Adair,OK,334.8468761985292,35.8839,-94.6587
"Adams, CO",Adams,CO,3670.6618626436953,39.8736,-104.3378
"Adams, IA",Adams,IA,41.23716852533058,41.029,-94.6992
"Adams, ID",Adams,ID,9.64894641767717,44.8896,-116.4538
"Adams, IL",Adams,IL,660.8455930301693,39.9879,-91.1885
"Adams, IN",Adams,IN,150.2438071411836,40.7457,-84.9367
"Adams, MS",Adams,MS,406.0434714497886,31.4829,-91.3535
"Adams, ND",Adams,ND,23.637754127111876,46.0968,-102.5284
"Adams, NE",Adams,NE,249.44904834456858,40.5245,-98.5012
"Adams, OH",Adams,OH,415.44491895390803,38.8455,-83.4721
"Adams, PA",Adams,PA,641.458824059182,39.8715,-77.2179
"Adams, WA",Adams,WA,221.44250533912873,46.9834,-118.5606
"Adams, WI",Adams,WI,272.2456872347528,43.9695,-89.7704
"Addison, VT",Addison,VT,252.04959312528933,44.0309,-73.1408
"Adjuntas Municipio, 72",Adjuntas Municipio,72,0.0711596492755455,39.8283,-98.5795
"Aguada Municipio, 72",Aguada Municipio,72,0.04445964927554551,39.8283,-98.5795
"Aguadilla Municipio, 72",Aguadilla Municipio,72,0.049259649275545506,39.8283,-98.5795
"Aguas Buenas Municipio, 72",Aguas Buenas Municipio,72,0.03965964927554551,39.8283,-98.5795
"Aibonito Municipio, 72",Aibonito Municipio,72,0.04175964927554551,39.8283,-98.5795
"Aiken, SC",Aiken,SC,1548.4422779106576,33.5442,-81.6347
"Aitkin, MN",Aitkin,MN,110.84679994769404,46.6082,-93.4155
"Alachua, FL",Alachua,FL,1994.0519469457854,29.6747,-82.3577
"Alamance, NC",Alamance,NC,1829.0446649667024,36.0437,-79.3995
"Alameda, CA",Alameda,CA,10356.083085233251,37.6469,-121.8887
"Alamosa, CO",Alamosa,CO,353.4444135594664,37.5729,-105.7883
"Albany, NY",Albany,NY,2990.6605545265884,42.6002,-73.9736
"Albany, WY",Albany,WY,122.65282157500259,41.6545,-105.7238
"Albemarle, VA",Albemarle,VA,344.6583225896344,38.0229,-78.5567
"Alcona, MI",Alcona,MI,120.6557104308167,44.6854,-83.5938
"Alcorn, MS",Alcorn,MS,535.6372744288146,34.8808,-88.5803
"Aleutians East Borough, AK",Aleutians East Borough,AK,25.84569709515916,55.3669,-161.9805
"Aleutians West Census Area, AK",Aleutians West Census Area,AK,9.860797984433866,52.7985,-106.5633
"Alexander, IL",Alexander,IL,104.05891132064667,37.1915,-89.3375
"Alexander, NC",Alexander,NC,271.24204037158984,35.921,-81.177
"Alexandria City, VA",Alexandria City,VA,780.4675089406542,38.8185,-77.0861
"Alfalfa, OK",Alfalfa,OK,36.044783695602824,36.731,-98.324
"Alger, MI",Alger,MI,75.45302563948053,46.4086,-86.604
"Allamakee, IA",Allamakee,IA,91.64087287610566,43.2843,-91.3781
"Allegan, MI",Allegan,MI,635.6473592081762,42.5913,-85.8883
"Allegany, MD",Allegany,MD,1207.8445707015578,39.6214,-78.6976
"Allegany, NY",Allegany,NY,515.0467327825914,42.2574,-78.0276
"Alleghany, NC",Alleghany,NC,111.24266667906971,36.4916,-81.127
"Alleghany, VA",Alleghany,VA,111.04476552308039,37.7878,-80.0062
"Allegheny, PA",Allegheny,PA,13797.25015222906,40.4688,-79.9812
"Allen, IN",Allen,IN,2741.247491926888,41.0909,-85.0665
"Allen, KS",Allen,KS,113.24257354548207,37.8857,-95.3014
"Allen, KY",Allen,KY,204.2473948564523,36.7513,-86.1904
"Allen, OH",Allen,OH,1079.0455171427666,40.7715,-84.1058
"Allen Parish, LA",Allen Parish,LA,361.0443233764563,30.6529,-92.828
"Allendale, SC",Allendale,SC,156.24417805552636,32.9881,-81.3582
"Alpena, MI",Alpena,MI,434.4476702802556,45.0348,-83.6282
"Alpine, CA",Alpine,CA,8.07279345865192,38.5972,-119.8207
"Amador, CA",Amador,CA,256.86573944216843,38.4464,-120.6511
"Amelia, VA",Amelia,VA,133.6485359010328,37.336,-77.9761
"Amherst, VA",Amherst,VA,315.4451014965421,37.6048,-79.1452
"Amite, MS",Amite,MS,191.04302085931056,31.1744,-90.8044
"Anasco Municipio, 72",Anasco Municipio,72,0.04175964927554551,39.8283,-98.5795
"Anchorage Borough/Municipality, AK",Anchorage Borough/Municipality,AK,0.0327516607940197,61.1498,-149.1082
"Anderson, KS",Anderson,KS,44.84286741148351,38.2142,-95.2933
"Anderson, KY",Anderson,KY,151.443314372947,38.0039,-84.991
"Anderson, SC",Anderson,SC,1737.2440767758285,34.5193,-82.6378
"Anderson, TN",Anderson,TN,788.439669962358,36.1185,-84.1985
"Anderson, TX",Anderson,TX,546.2430249186026,31.8133,-95.6525
"Andrew, MO",Andrew,MO,76.05075391183065,39.9835,-94.8021
"Andrews, TX",Andrews,TX,152.64364030185556,32.305,-102.6377
"Androscoggin, ME",Androscoggin,ME,1494.2452105154582,44.1658,-70.2065
"Angelina, TX",Angelina,TX,1182.843107320168,31.2548,-94.6119
"Anne Arundel, MD",Anne Arundel,MD,2916.6605616506663,39.0065,-76.6051
"Anoka, MN",Anoka,MN,1837.6636224506965,45.2733,-93.2465
"Anson, NC",Anson,NC,518.8427371952786,34.9738,-80.1027
"Antelope, NE",Antelope,NE,28.24756894141841,42.1769,-98.0667
"Antrim, MI",Antrim,MI,205.2490804651957,44.9991,-85.1402
"Apache, AZ",Apache,AZ,1186.6629787172094,35.3955,-109.4888
"Appanoose, IA",Appanoose,IA,136.44078112258762,40.7432,-92.8686
"Appling, GA",Appling,GA,287.63922982492784,31.7492,-82.2889
"Appomattox, VA",Appomattox,VA,181.2443591052996,37.3723,-78.8126
"Aransas, TX",Aransas,TX,273.8488457721446,28.1254,-96.9933
"Arapahoe, CO",Arapahoe,CO,3833.8625353955704,39.6498,-104.3393
"Archer, TX",Archer,TX,52.04385998810175,33.6153,-98.6877
"Archuleta, CO",Archuleta,CO,71.04416167343993,37.1935,-107.0483
"Arecibo Municipio, 72",Arecibo Municipio,72,0.04265964927554551,39.8283,-98.5795
"Arenac, MI",Arenac,MI,201.05077621127595,44.0655,-83.8952
"Arkansas, AR",Arkansas,AR,169.84080261841356,34.2892,-91.3742
"Arlington, VA",Arlington,VA,756.6736232463012,38.8786,-77.1011
"Armstrong, PA",Armstrong,PA,828.4473546280384,40.8121,-79.4646
"Armstrong, TX",Armstrong,TX,5.046186910247496,34.9649,-101.3574
"Aroostook, ME",Aroostook,ME,1193.4464953573786,46.6589,-68.5989
"Arroyo Municipio, 72",Arroyo Municipio,72,0.05495964927554551,39.8283,-98.5795
"Arthur, NE",Arthur,NE,2.2525584628421638,41.569,-101.6958
"Ascension Parish, LA",Ascension Parish,LA,1041.4496085111057,30.2036,-90.9113
"Ashe, NC",Ashe,NC,326.64320074813287,36.4341,-81.5003
"Ashland, OH",Ashland,OH,354.441646260939,40.846,-82.2707
"Ashland, WI",Ashland,WI,217.44703332619312,46.3148,-90.6781
"Ashley, AR",Ashley,AR,188.6446489300658,33.1912,-91.7685
"Ashtabula, OH",Ashtabula,OH,1441.8395987181307,41.7072,-80.7482
"Asotin, WA",Asotin,WA,350.8433525386922,46.1918,-117.203
"Assumption Parish, LA",Assumption Parish,LA,342.4460997728992,29.9024,-91.0608
"Atascosa, TX",Atascosa,TX,556.4441148410855,28.8935,-98.5272
"Atchison, KS",Atchison,KS,125.6441551901701,39.5318,-95.3135
"Atchison, MO",Atchison,MO,26.24359452049297,40.4308,-95.4281
"Athens, OH",Athens,OH,665.050085336549,39.3339,-82.0452
"Atkinson, GA",Atkinson,GA,150.23604139309455,31.2971,-82.88
"Atlantic, NJ",Atlantic,NJ,2614.868032674235,39.4778,-74.6613
"Atoka, OK",Atoka,OK,145.24522194353412,34.3737,-96.0378
"Attala, MS",Attala,MS,227.44000403853073,33.0863,-89.5815
"Audrain, MO",Audrain,MO,218.6448922999085,39.2157,-91.8416
"Audubon, IA",Audubon,IA,42.43787454037024,41.6846,-94.9058
"Auglaize, OH",Auglaize,OH,275.0412591281977,40.5609,-84.2217
"Augusta, VA",Augusta,VA,380.2491075423952,38.1644,-79.1338
"Aurora, SD",Aurora,SD,10.437989423700822,43.718,-98.5615
"Austin, TX",Austin,TX,205.84677498717483,29.887,-96.2779
"Autauga, AL",Autauga,AL,394.84867366902455,32.5349,-86.6427
"Avery, NC",Avery,NC,140.64483914135081,36.0765,-81.9226
"Avoyelles Parish, LA",Avoyelles Parish,LA,783.4450881352325,31.0763,-92.0014
"Baca, CO",Baca,CO,72.63775122814864,37.3192,-102.5605
"Bacon, GA",Bacon,GA,160.23707414057785,31.5537,-82.4527
"Bailey, TX",Bailey,TX,44.24306382351796,34.0686,-102.8299
"Baker, FL",Baker,FL,330.4440286766419,30.3311,-82.2846
"Baker, GA",Baker,GA,37.840269163601064,31.3261,-84.4447
"Baker, OR",Baker,OR,257.05640663539225,44.7092,-117.6753
"Baldwin, AL",Baldwin,AL,1296.0490634586765,30.7277,-87.7226
"Baldwin, GA",Baldwin,GA,496.43735905125965,33.0693,-83.2496
"Ballard, KY",Ballard,KY,67.04688455092823,37.0585,-88.9995
"Baltimore, MD",Baltimore,MD,7248.653114010021,39.4629,-76.6395
"Baltimore City, MD",Baltimore City,MD,11821.651729233672,39.4629,-76.6395
"Bamberg, SC",Bamberg,SC,199.04489787259823,33.2148,-81.0542
"Bandera, TX",Bandera,TX,131.24765481227928,29.7472,-99.2463
"Banks, GA",Banks,GA,119.83643898968829,34.3543,-83.4972
"Banner, NE",Banner,NE,2.2547121014335816,41.546,-103.7105
"Bannock, ID",Bannock,ID,965.2469485914863,42.6685,-112.2246
"Baraga, MI",Baraga,MI,102.05688030486178,46.6626,-88.3652
"Barber, KS",Barber,KS,11.842600876772094,37.2289,-98.6848
"Barbour, AL",Barbour,AL,402.64167789684836,31.8696,-85.3932
"Barbour, WV",Barbour,WV,195.85393184342533,39.133,-80.003
"Barceloneta Municipio, 72",Barceloneta Municipio,72,0.0423596492755455,39.8283,-98.5795
"Barnes, ND",Barnes,ND,66.8390023352833,46.9361,-98.0716
"Barnstable, MA",Barnstable,MA,1718.272133519802,41.7244,-70.2903
"Barnwell, SC",Barnwell,SC,427.24170986590474,33.2661,-81.4349
"Barranquitas Municipio, 72",Barranquitas Municipio,72,0.03672526031732559,39.8283,-98.5795
"Barren, KY",Barren,KY,540.4422273239275,36.9656,-85.9337
"Barron, WI",Barron,WI,440.2483053613848,45.4237,-91.8483
"Barrow, GA",Barrow,GA,599.6436072369197,33.9932,-83.7127
"Barry, MI",Barry,MI,423.05002438079055,42.595,-85.309
"Barry, MO",Barry,MO,345.84284722056026,36.7099,-93.8291
"Bartholomew, IN",Bartholomew,IN,483.0491236968664,39.206,-85.8976
"Barton, KS",Barton,KS,131.041687194792,38.479,-98.7565
"Barton, MO",Barton,MO,166.64492561079282,37.5023,-94.3471
"Bartow, GA",Bartow,GA,632.2431922785139,34.2377,-84.8403
"Bastrop, TX",Bastrop,TX,544.851304503578,30.1036,-97.312
"Bates, MO",Bates,MO,159.04820963303777,38.2573,-94.34
"Bath, KY",Bath,KY,190.84396243255705,38.145,-83.7427
"Bath, VA",Bath,VA,36.639259256691936,38.0587,-79.7411
"Baxter, AR",Baxter,AR,331.6419268820536,36.2872,-92.3369
"Bay, FL",Bay,FL,1924.64908467296,30.2652,-85.6203
"Bay, MI",Bay,MI,1205.0514978784463,43.7075,-83.9924
"Bayamon Municipio, 72",Bayamon Municipio,72,0.03275964927554551,39.8283,-98.5795
"Bayfield, WI",Bayfield,WI,173.44602151287498,46.5237,-91.2009
"Baylor, TX",Baylor,TX,41.038782792460836,33.6165,-99.2135
"Beadle, SD",Beadle,SD,154.83981467930633,44.4145,-98.2781
"Bear Lake, ID",Bear Lake,ID,23.44013397948483,42.2848,-111.3297
"Beaufort, NC",Beaufort,NC,559.0451903495909,35.494,-76.8598
"Beaufort, SC",Beaufort,SC,779.4541739452795,32.3857,-80.7306
"Beauregard Parish, LA",Beauregard Parish,LA,485.44539794579066,30.6486,-93.3432
"Beaver, OK",Beaver,OK,18.041891691503224,36.7497,-100.4768
"Beaver, PA",Beaver,PA,1991.4467432892927,40.6823,-80.3493
"Beaver, UT",Beaver,UT,20.647146841226665,38.357,-113.2355
"Beaverhead, MT",Beaverhead,MT,60.642426767465075,45.1327,-112.8988
"Becker, MN",Becker,MN,284.4433534108411,46.9346,-95.674
"Beckham, OK",Beckham,OK,270.44683906916737,35.2687,-99.682
"Bedford, PA",Bedford,PA,554.4444682284172,40.0065,-78.4903
"Bedford, TN",Bedford,TN,438.83968889148997,35.5138,-86.4589
"Bedford, VA",Bedford,VA,416.8482472625315,37.3152,-79.5242
"Bee, TX",Bee,TX,265.24744508151855,28.4174,-97.7412
"Belknap, NH",Belknap,NH,321.0448647658795,43.5179,-71.4227
"Bell, KY",Bell,KY,410.04582176061814,36.7306,-83.6741
"Bell, TX",Bell,TX,3638.644885480919,31.0373,-97.4788
"Belmont, OH",Belmont,OH,748.6468988715023,40.0158,-80.9885
"Beltrami, MN",Beltrami,MN,493.24643292185436,47.9738,-94.9376
"Ben Hill, GA",Ben Hill,GA,314.03894744871224,31.7598,-83.2205
"Benewah, ID",Benewah,ID,85.44821858419402,47.2176,-116.6587
"Bennett, SD",Bennett,SD,37.243629400205776,43.195,-101.664
"Bennington, VT",Bennington,VT,430.4452542710711,43.0354,-73.0932
"Benson, ND",Benson,ND,73.43825219863024,48.0694,-99.366
"Bent, CO",Bent,CO,87.64392355960408,37.9551,-103.0717
"Benton, AR",Benton,AR,871.844740415506,36.3387,-94.2561
"Benton, IA",Benton,IA,107.24789826613748,42.0802,-92.0657
"Benton, IN",Benton,IN,58.64500058053931,40.6063,-87.3109
"Benton, MN",Benton,MN,287.2528599006343,45.6991,-93.9988
"Benton, MO",Benton,MO,216.04946021994365,38.2949,-93.2879
"Benton, MS",Benton,MS,100.04393658094111,34.8173,-89.1885
"Benton, OR",Benton,OR,938.2639700616166,44.4918,-123.4293
"Benton, TN",Benton,TN,236.64020874010663,36.0698,-88.0683
"Benton, WA",Benton,WA,2202.849163249496,46.2398,-119.5112
"Benzie, MI",Benzie,MI,110.04713511372503,44.6387,-86.0155
"Bergen, NJ",Bergen,NJ,3595.67103229496,40.9597,-74.0742
"Berkeley, SC",Berkeley,SC,1310.2485981895861,33.1971,-79.9522
"Berkeley, WV",Berkeley,WV,1124.0597591965277,39.4641,-78.0275
"Berks, PA",Berks,PA,4456.255664377128,40.4163,-75.926
"Berkshire, MA",Berkshire,MA,1758.658403721708,42.3707,-73.2063
"Bernalillo, NM",Bernalillo,NM,9569.644919451563,35.0514,-106.6702
"Berrien, GA",Berrien,GA,304.2381358113715,31.276,-83.2296
"Berrien, MI",Berrien,MI,1697.6510338897417,41.9547,-86.4123
"Bertie, NC",Bertie,NC,376.04873122949573,36.0663,-76.9788
"Bethel Census Area, AK",Bethel Census Area,AK,394.8868103329686,60.9132,-159.8186
"Bexar, TX",Bexar,TX,20614.64399170399,29.4489,-98.52
"Bibb, AL",Bibb,AL,307.0444935212108,32.9986,-87.1265
"Bibb, GA",Bibb,GA,2641.043654672186,32.8065,-83.6974
"Bienville Parish, LA",Bienville Parish,LA,253.24704950350412,32.3473,-93.0561
"Big Horn, MT",Big Horn,MT,120.4539959123116,45.4234,-107.4898
"Big Horn, WY",Big Horn,WY,42.653203061122916,44.5267,-107.9952
"Big Stone, MN",Big Stone,MN,38.44556517396156,45.4261,-96.411
"Billings, ND",Billings,ND,0.04085954304235771,47.0236,-103.3763
"Bingham, ID",Bingham,ID,317.64197522178944,43.2166,-112.3981
"Black Hawk, IA",Black Hawk,IA,1266.8475064821657,42.4701,-92.3088
"Blackford, IN",Blackford,IN,162.64221521679482,40.4736,-85.3249
"Bladen, NC",Bladen,NC,638.6498397545083,34.6146,-78.5637
"Blaine, ID",Blaine,ID,88.0570354051003,43.4119,-113.9802
"Blaine, MT",Blaine,MT,68.4430406525411,48.4327,-108.9586
"Blaine, NE",Blaine,NE,0.04935037403668228,41.9128,-99.9767
"Blaine, OK",Blaine,OK,86.445287052433,35.8752,-98.4334
"Blair, PA",Blair,PA,1761.0453074497245,40.4811,-78.3483
"Blanco, TX",Blanco,TX,49.042940205234515,30.2664,-98.3999
"Bland, VA",Bland,VA,34.847452743972084,37.134,-81.1302
"Bleckley, GA",Bleckley,GA,208.03874682767545,32.4344,-83.3278
"Bledsoe, TN",Bledsoe,TN,178.6387437063164,35.5964,-85.2051
"Blount, AL",Blount,AL,541.2426130006415,33.9809,-86.5674
"Blount, TN",Blount,TN,674.2397746066241,35.6872,-83.9255
"Blue Earth, MN",Blue Earth,MN,431.65509896166816,44.0346,-94.067
"Boise, ID",Boise,ID,45.04731219804966,43.9892,-115.7303
"Bolivar, MS",Bolivar,MS,663.6408129192722,33.7971,-90.8806
"Bollinger, MO",Bollinger,MO,89.04924457174228,37.3222,-90.0259
"Bon Homme, SD",Bon Homme,SD,29.841409935588167,42.9885,-97.8846
"Bond, IL",Bond,IL,171.65080031682672,38.8868,-89.4355
"Bonner, ID",Bonner,ID,272.2491609855891,48.3,-116.6011
"Bonneville, ID",Bonneville,ID,805.6444701813948,43.3877,-111.6148
"Boone, AR",Boone,AR,264.6389170244832,36.3086,-93.0915
"Boone, IA",Boone,IA,100.44122500784621,42.0365,-93.9316
"Boone, IL",Boone,IL,516.2520386659243,42.3231,-88.8234
"Boone, IN",Boone,IN,214.05251394503946,40.0508,-86.4687
"Boone, KY",Boone,KY,581.6558962673676,38.9699,-84.7278
"Boone, MO",Boone,MO,1020.250619174188,38.9906,-92.3097
"Boone, NE",Boone,NE,18.44756350976019,41.7068,-98.0672
"Boone, WV",Boone,WV,349.86061487101887,38.0229,-81.7115
"Borden, TX",Borden,TX,0.4390360669704388,32.7436,-101.4317
"Bosque, TX",Bosque,TX,168.83986217371188,31.9004,-97.6343
"Bossier Parish, LA",Bossier Parish,LA,1023.444679325171,32.6784,-93.6049
"Botetourt, VA",Botetourt,VA,71.45139065731122,37.5571,-79.8123
"Bottineau, ND",Bottineau,ND,32.4379474912697,48.7922,-100.8333
"Boulder, CO",Boulder,CO,1551.2680561797024,40.0925,-105.3577
"Boundary, ID",Boundary,ID,120.24650377750655,48.7669,-116.4629
"Bourbon, KS",Bourbon,KS,118.84732937420154,37.8552,-94.8493
"Bourbon, KY",Bourbon,KY,229.84577128075236,38.2067,-84.2172
"Bowie, TX",Bowie,TX,895.6433560705825,33.4458,-94.4234
"Bowman, ND",Bowman,ND,8.23717402215188,46.1126,-103.5206
"Box Butte, NE",Box Butte,NE,57.85121396537189,42.2197,-103.0857
"Box Elder, UT",Box Elder,UT,257.24546371002015,41.521,-113.0821
"Boyd, KY",Boyd,KY,619.4482042739758,38.3596,-82.6878
"Boyd, NE",Boyd,NE,9.650691641428311,42.8997,-98.7665
"Boyle, KY",Boyle,KY,212.84291574555,37.6244,-84.8668
"Bracken, KY",Bracken,KY,107.04716181925463,38.6888,-84.0901
"Bradford, FL",Bradford,FL,329.2455117029637,29.95,-82.1688
"Bradford, PA",Bradford,PA,648.2453568701067,41.7887,-76.5154
"Bradley, AR",Bradley,AR,140.84420517212143,33.4664,-92.1624
"Bradley, TN",Bradley,TN,1012.2426230384631,35.1541,-84.8596
"Branch, MI",Branch,MI,436.0447582481398,41.9161,-85.059
"Brantley, GA",Brantley,GA,305.83719413356636,31.1969,-81.9819
"Braxton, WV",Braxton,WV,203.45503412093655,38.6999,-80.7193
"Brazoria, TX",Brazoria,TX,2128.251987448034,29.1898,-95.4521
"Brazos, TX",Brazos,TX,1579.8444519400828,30.6608,-96.3024
"Breathitt, KY",Breathitt,KY,362.6443137280032,37.5216,-83.3241
"Breckinridge, KY",Breckinridge,KY,205.4428975212372,37.7734,-86.4293
"Bremer, IA",Bremer,IA,100.64414509240986,42.7746,-92.3181
"Brevard, FL",Brevard,FL,4757.250438419858,28.2937,-80.7323
"Brewster, TX",Brewster,TX,58.64069626145645,29.8119,-103.2517
"Briscoe, TX",Briscoe,TX,4.440632439932816,34.5303,-101.2085
"Bristol, MA",Bristol,MA,8834.259819069073,41.7972,-71.1145
"Bristol, RI",Bristol,RI,234.2558885224007,41.7173,-71.284
"Bristol Bay Borough, AK",Bristol Bay Borough,AK,3.049329675640112,58.7431,-156.7015
"Bristol City, VA",Bristol City,VA,311.4454121592404,36.618,-82.1605
"Broadwater, MT",Broadwater,MT,34.6450579245517,46.3324,-111.4955
"Bronx, NY",Bronx,NY,39116.08035945812,40.8501,-73.8671
"Brooke, WV",Brooke,WV,301.05381014358625,40.2739,-80.5764
"Brookings, SD",Brookings,SD,137.64331405511257,44.3697,-96.7904
"Brooks, GA",Brooks,GA,215.24219604056412,30.842,-83.5802
"Brooks, TX",Brooks,TX,192.63923267076828,27.0316,-98.2187
"Broome, NY",Broome,NY,2505.255150533517,42.1602,-75.8196
"Broomfield County/City, CO",Broomfield County/City,CO,0.034002635627985,39.9541,-105.0527
"Broward, FL",Broward,FL,19522.657997635222,26.1523,-80.4871
"Brown, IL",Brown,IL,50.246324189439896,39.9618,-90.7504
"Brown, IN",Brown,IN,81.44842103744837,39.1962,-86.2274
"Brown, KS",Brown,KS,86.04358852699544,39.8265,-95.5642
"Brown, MN",Brown,MN,128.24131560864717,44.2421,-94.7276
"Brown, NE",Brown,NE,14.249169397842582,42.43,-99.9295
"Brown, OH",Brown,OH,545.6448272729912,38.9338,-83.8673
"Brown, SD",Brown,SD,225.63832215663388,45.5898,-98.3516
"Brown, TX",Brown,TX,352.4415922381986,31.7742,-98.9998
"Brown, WI",Brown,WI,2240.247198809711,44.4525,-88.0037
"Brule, SD",Brule,SD,12.841217628793146,43.7181,-99.0809
"Brunswick, NC",Brunswick,NC,1229.4512297660588,34.0715,-78.2383
"Brunswick, VA",Brunswick,VA,272.6480912170174,36.7648,-77.859
"Bryan, GA",Bryan,GA,266.4512112236464,32.0145,-81.4436
"Bryan, OK",Bryan,OK,449.24861847524016,33.9623,-96.2598
"Buchanan, IA",Buchanan,IA,106.64152429833301,42.4708,-91.8379
"Buchanan, MO",Buchanan,MO,943.0514361997173,39.6598,-94.8059
"Buchanan, VA",Buchanan,VA,373.6485522285847,37.2666,-82.036
"Buckingham, VA",Buckingham,VA,212.6463413771933,37.5722,-78.5288
"Bucks, PA",Bucks,PA,3708.2621447667907,40.3369,-75.1069
"Buena Vista, IA",Buena Vista,IA,140.23972707626865,42.7355,-95.1511
"Buena Vista City, VA",Buena Vista City,VA,69.04350187074552,37.7319,-79.3568
"Buffalo, NE",Buffalo,NE,281.0485786730331,40.8552,-99.075
"Buffalo, SD",Buffalo,SD,22.243275171620308,44.0763,-99.2048
"Buffalo, WI",Buffalo,WI,115.047354146858,44.3798,-91.7545
"Bullitt, KY",Bullitt,KY,442.0486012580033,37.9701,-85.6959
"Bulloch, GA",Bulloch,GA,890.8399011900044,32.3968,-81.7432
"Bullock, AL",Bullock,AL,227.44383984366266,32.1005,-85.7157
"Buncombe, NC",Buncombe,NC,1895.6609666337508,35.6112,-82.5301
"Bureau, IL",Bureau,IL,387.24995780266767,41.4041,-89.5286
"Burke, GA",Burke,GA,313.23955297740423,33.0611,-82.0007
"Burke, NC",Burke,NC,1091.4418265922527,35.7496,-81.7048
"Burke, ND",Burke,ND,9.037800913071449,48.791,-102.5182
"Burleigh, ND",Burleigh,ND,457.85186532509607,46.9775,-100.4687
"Burleson, TX",Burleson,TX,180.4420276425924,30.4925,-96.6215
"Burlington, NJ",Burlington,NJ,1737.0638463978244,39.8777,-74.6681
"Burnet, TX",Burnet,TX,264.64295095363406,30.7884,-98.1823
"Burnett, WI",Burnett,WI,178.84642884282363,45.8627,-92.3676
"Burt, NE",Burt,NE,47.24513746894163,41.8515,-96.3286
"Butler, AL",Butler,AL,237.84082715521225,31.7524,-86.6803
"Butler, IA",Butler,IA,96.24172556991978,42.7316,-92.7902
"Butler, KS",Butler,KS,345.8520862478072,37.7813,-96.8391
"Butler, KY",Butler,KY,163.44784327022958,37.2073,-86.6816
"Butler, MO",Butler,MO,648.6487784479439,36.7164,-90.4066
"Butler, NE",Butler,NE,36.244068494613835,41.2261,-97.1318
"Butler, OH",Butler,OH,2755.2515717068095,39.4386,-84.5756
"Butler, PA",Butler,PA,1523.0502390460015,40.912,-79.9133
"Butte, CA",Butte,CA,2475.4634820689985,39.6669,-121.6007
"Butte, ID",Butte,ID,21.44631039820973,43.7229,-113.172
"Butte, SD",Butte,SD,71.84406913055533,44.9058,-103.5079
"Butts, GA",Butts,GA,265.0459596974466,33.2879,-83.9572
"Cabarrus, NC",Cabarrus,NC,1527.248056738282,35.3868,-80.5519
"Cabell, WV",Cabell,WV,1319.0590880563284,38.4203,-82.2417
"Cabo Rojo Municipio, 72",Cabo Rojo Municipio,72,0.049259649275545506,39.8283,-98.5795
"Cache, UT",Cache,UT,411.44553449714545,41.7225,-111.7436
"Caddo, OK",Caddo,OK,275.24571611264616,35.1744,-98.3751
"Caddo Parish, LA",Caddo Parish,LA,3887.64282259107,32.5806,-93.8823
"Caguas Municipio, 72",Caguas Municipio,72,0.03755964927554551,39.8283,-98.5795
"Calaveras, CA",Calaveras,CA,343.66844632817816,38.2046,-120.5541
"Calcasieu Parish, LA",Calcasieu Parish,LA,2214.2460422126887,30.2293,-93.3581
"Caldwell, KY",Caldwell,KY,128.6434304877858,37.1454,-87.8678
"Caldwell, MO",Caldwell,MO,57.8465480763641,39.6557,-93.9827
"Caldwell, NC",Caldwell,NC,827.2416642677234,35.953,-81.5464
"Caldwell, TX",Caldwell,TX,302.44798668475056,29.8368,-97.6199
"Caldwell Parish, LA",Caldwell Parish,LA,173.8461961517044,32.0925,-92.1166
"Caledonia, VT",Caledonia,VT,395.6436217186283,44.4647,-72.1022
"Calhoun, AL",Calhoun,AL,1552.8427908201504,33.7714,-85.826
"Calhoun, AR",Calhoun,AR,25.84196141851648,33.5581,-92.503
"Calhoun, FL",Calhoun,FL,208.4466976062914,30.406,-85.1972
"Calhoun, GA",Calhoun,GA,102.23705129079929,31.5292,-84.6245
"Calhoun, IA",Calhoun,IA,72.43828636289523,42.3852,-94.6404
"Calhoun, IL",Calhoun,IL,19.25281860503088,39.1693,-90.6676
"Calhoun, MI",Calhoun,MI,1388.6535797645374,42.2465,-85.0056
"Calhoun, MS",Calhoun,MS,151.03941655478044,33.9365,-89.3365
"Calhoun, SC",Calhoun,SC,179.64192284073408,33.6749,-80.7803
"Calhoun, TX",Calhoun,TX,269.84171655032577,28.5074,-96.6018
"Calhoun, WV",Calhoun,WV,103.45416825483431,38.8445,-81.1176
"Callahan, TX",Callahan,TX,105.24267883153261,32.2976,-99.3735
"Callaway, MO",Callaway,MO,277.2468872832709,38.8355,-91.926
"Calloway, KY",Calloway,KY,322.4506188086288,36.621,-88.2723
"Calumet, WI",Calumet,WI,268.2436463373193,44.0816,-88.2181
"Calvert, MD",Calvert,MD,344.26097845288325,38.5434,-76.5687
"Camas, ID",Camas,ID,0.2440340882936513,43.4633,-114.8058
"Cambria, PA",Cambria,PA,2088.4493856337303,40.4951,-78.7134
"Camden, GA",Camden,GA,494.2411492003043,30.9306,-81.6699
"Camden, MO",Camden,MO,280.4454663180581,38.027,-92.766
"Camden, NC",Camden,NC,81.65234000031408,36.3891,-76.2079
"Camden, NJ",Camden,NJ,5178.860867435837,39.8035,-74.9597
"Cameron, PA",Cameron,PA,119.64656928551489,41.4367,-78.204
"Cameron, TX",Cameron,TX,6836.247304465206,26.1333,-97.5187
"Cameron Parish, LA",Cameron Parish,LA,27.647927361470074,29.8754,-93.1937
"Camp, TX",Camp,TX,161.44518934667346,32.9732,-94.9785
"Campbell, KY",Campbell,KY,490.85281313256036,38.9465,-84.3795
"Campbell, SD",Campbell,SD,8.049629134159236,45.7712,-100.0516
"Campbell, TN",Campbell,TN,651.0377376096471,36.4035,-84.1494
"Campbell, VA",Campbell,VA,505.24532553920056,37.2054,-79.0966
"Campbell, WY",Campbell,WY,93.45713995578583,44.2482,-105.5482
"Camuy Municipio, 72",Camuy Municipio,72,0.03725964927554551,39.8283,-98.5795
"Canadian, OK",Canadian,OK,862.4494456982235,35.5424,-97.9824
"Candler, GA",Candler,GA,191.23739987568408,32.4034,-82.0737
"Cannon, TN",Cannon,TN,123.8374968388165,35.8087,-86.0618
"Canovanas Municipio, 72",Canovanas Municipio,72,0.03875964927554551,39.8283,-98.5795
"Canyon, ID",Canyon,ID,1609.44836426519,43.6251,-116.7093
"Cape Girardeau, MO",Cape Girardeau,MO,628.8520502845279,37.384,-89.6845
"Cape May, NJ",Cape May,NJ,683.8674419141897,39.1494,-74.8005
"Capitol Planning Region, CT",Capitol Planning Region,CT,10039.233059649277,41.8185,-72.572
"Carbon, MT",Carbon,MT,65.2457970026693,45.2274,-109.0281
"Carbon, PA",Carbon,PA,803.650792256854,40.9182,-75.7089
"Carbon, UT",Carbon,UT,235.05017214508254,39.6481,-110.5887
"Carbon, WY",Carbon,WY,74.45755741094173,41.6944,-106.9305
"Caribou, ID",Caribou,ID,37.8423759524915,42.7705,-111.5623
"Carlisle, KY",Carlisle,KY,49.0451412639558,36.8532,-88.971
"Carlton, MN",Carlton,MN,199.85570786014534,46.5924,-92.677
"Carolina Municipio, 72",Carolina Municipio,72,0.03275964927554551,39.8283,-98.5795
"Caroline, MD",Caroline,MD,426.4428750466686,38.8717,-75.8316
"Caroline, VA",Caroline,VA,291.455044106529,38.0267,-77.3472
"Carroll, AR",Carroll,AR,107.83813523226873,36.341,-93.5382
"Carroll, GA",Carroll,GA,1298.648857248476,33.5828,-85.0798
"Carroll, IA",Carroll,IA,126.43799361021283,42.0362,-94.8605
"Carroll, IL",Carroll,IL,163.44601551193935,42.0687,-89.9343
"Carroll, IN",Carroll,IN,68.64394563187781,40.5828,-86.5635
"Carroll, KY",Carroll,KY,101.2388682172893,38.6678,-85.1236
"Carroll, MD",Carroll,MD,670.8493731694543,39.5629,-77.0225
"Carroll, MO",Carroll,MO,54.24303955444779,39.427,-93.5052
"Carroll, MS",Carroll,MS,131.2413995731039,33.4485,-89.9202
"Carroll, NH",Carroll,NH,195.04581971946916,43.8738,-71.2031
"Carroll, OH",Carroll,OH,279.6455431410859,40.5796,-81.0897
"Carroll, TN",Carroll,TN,292.8392361523742,35.9732,-88.4503
"Carroll, VA",Carroll,VA,358.2497236759688,36.7316,-80.7339
"Carson, TX",Carson,TX,17.643922919858607,35.4035,-101.3542
"Carson City, NV",Carson City,NV,477.0524012207917,39.1511,-119.7476
"Carter, KY",Carter,KY,391.04881222398575,38.3182,-83.0495
"Carter, MO",Carter,MO,75.04481636071534,36.9412,-90.9623
"Carter, MT",Carter,MT,8.64169144479007,45.5168,-104.5362
"Carter, OK",Carter,OK,574.2480136470281,34.2509,-97.2858
"Carter, TN",Carter,TN,702.0397628229925,36.2928,-82.1275
"Carteret, NC",Carteret,NC,564.8499894510612,34.8357,-76.6589
"Carver, MN",Carver,MN,246.6654997408338,44.8207,-93.8026
"Cascade, MT",Cascade,MT,733.6468762502352,47.3079,-111.347
"Casey, KY",Casey,KY,195.04266249096,37.3223,-84.9283
"Cass, IA",Cass,IA,160.43922166960576,41.3315,-94.9278
"Cass, IL",Cass,IL,136.44644069125866,39.9735,-90.2474
"Cass, IN",Cass,IN,284.84088304265816,40.7615,-86.346
"Cass, MI",Cass,MI,524.0518544402597,41.9154,-85.9935
"Cass, MN",Cass,MN,269.64409044789153,46.9496,-94.3254
"Cass, MO",Cass,MO,501.6521414447771,38.647,-94.3549
"Cass, ND",Cass,ND,987.4515111085535,46.933,-97.248
"Cass, NE",Cass,NE,80.45255053912524,40.9097,-96.1409
"Cass, TX",Cass,TX,398.0453830482358,33.0775,-94.3435
"Cassia, ID",Cassia,ID,122.64305147814146,42.2839,-113.6001
"Castro, TX",Castro,TX,51.23888701787138,34.5299,-102.2617
"Caswell, NC",Caswell,NC,326.6402084405966,36.3932,-79.3335
"Catahoula Parish, LA",Catahoula Parish,LA,118.24831640513081,31.6662,-91.847
"Catano Municipio, 72",Catano Municipio,72,0.03335964927554551,39.8283,-98.5795
"Catawba, NC",Catawba,NC,1575.4439267146968,35.662,-81.2151
"Catoosa, GA",Catoosa,GA,585.6415395468362,34.9036,-85.1382
"Catron, NM",Catron,NM,53.447577751976944,33.9153,-108.4046
"Cattaraugus, NY",Cattaraugus,NY,1067.8443847418662,42.2486,-78.6788
"Cavalier, ND",Cavalier,ND,8.639979442949791,48.7723,-98.4648
"Cayey Municipio, 72",Cayey Municipio,72,0.039359649275545514,39.8283,-98.5795
"Cayuga, NY",Cayuga,NY,950.6465823597094,42.9175,-76.5545
"Cecil, MD",Cecil,MD,1019.2513457973208,39.5712,-75.9407
"Cedar, IA",Cedar,IA,95.04115985228967,41.7723,-91.1324
"Cedar, MO",Cedar,MO,168.4422843651503,37.7238,-93.8566
"Cedar, NE",Cedar,NE,37.64897808094682,42.5993,-97.2524
"Ceiba Municipio, 72",Ceiba Municipio,72,0.04715964927554551,39.8283,-98.5795
"Centre, PA",Centre,PA,896.8565526161659,40.9189,-77.8199
"Cerro Gordo, IA",Cerro Gordo,IA,353.84212342671464,43.0816,-93.2608
"Chaffee, CO",Chaffee,CO,165.2446129377516,38.747,-106.1941
"Chambers, AL",Chambers,AL,460.0406203782195,32.9143,-85.392
"Chambers, TX",Chambers,TX,214.64950874143904,29.7384,-94.61
"Champaign, IL",Champaign,IL,1607.4533690726544,40.1401,-88.1992
"Champaign, OH",Champaign,OH,323.64515832944335,40.1377,-83.7696
"Chariton, MO",Chariton,MO,38.04670492647298,39.5151,-92.9626
"Charles, MD",Charles,MD,1081.6639556373677,38.5073,-76.9922
"Charles City, VA",Charles City,VA,66.24960855829376,37.3567,-77.0622
"Charles Mix, SD",Charles Mix,SD,81.43975176153944,43.2079,-98.5879
"Charleston, SC",Charleston,SC,2167.049814433745,32.8348,-79.9531
"Charlevoix, MI",Charlevoix,MI,195.04861449261858,45.2995,-85.124
"Charlotte, FL",Charlotte,FL,1282.6524666022842,26.9058,-81.9114
"Charlotte, VA",Charlotte,VA,232.24310695682485,37.0116,-78.6616
"Charlottesville City, VA",Charlottesville City,VA,388.45733556295653,38.0375,-78.4855
"Charlton, GA",Charlton,GA,179.0384722151081,30.7817,-82.1379
"Chase, KS",Chase,KS,12.24220165070717,38.302,-96.594
"Chase, NE",Chase,NE,13.05056836700956,40.5242,-101.698
"Chatham, GA",Chatham,GA,2803.846792685508,32.0043,-81.1329
"Chatham, NC",Chatham,NC,388.4482888121386,35.7026,-79.2554
"Chattahoochee, GA",Chattahoochee,GA,72.8608692254634,32.347,-84.787
"Chattooga, GA",Chattooga,GA,337.6401081765581,34.475,-85.3453
"Chautauqua, KS",Chautauqua,KS,32.84560910017746,37.15,-96.2454
"Chautauqua, NY",Chautauqua,NY,2093.444622547335,42.2281,-79.3663
"Chaves, NM",Chaves,NM,1116.2449150544246,33.3633,-104.4669
"Cheatham, TN",Cheatham,TN,182.44472788925225,36.2611,-87.0868
"Cheboygan, MI",Cheboygan,MI,271.2453971878486,45.4463,-84.4999
"Chelan, WA",Chelan,WA,701.8528888127014,47.8692,-120.619
"Chemung, NY",Chemung,NY,1153.2538920681322,42.1413,-76.76
"Chenango, NY",Chenango,NY,586.0425402299064,42.4935,-75.6116
"Cherokee, AL",Cherokee,AL,240.04087124238677,34.1759,-85.6038
"Cherokee, GA",Cherokee,GA,735.6496491771434,34.244,-84.4762
"Cherokee, IA",Cherokee,IA,61.23904869937784,42.7356,-95.6238
"Cherokee, KS",Cherokee,KS,198.44309449112728,37.1693,-94.8463
"Cherokee, NC",Cherokee,NC,281.6458507136785,35.1339,-84.0635
"Cherokee, OK",Cherokee,OK,585.0451676449206,35.9067,-94.9997
"Cherokee, SC",Cherokee,SC,613.043014360991,35.0481,-81.6206
"Cherokee, TX",Cherokee,TX,505.242216299655,31.837,-95.1652
"Cherry, NE",Cherry,NE,27.849513041637206,42.545,-101.1186
"Chesapeake City, VA",Chesapeake City,VA,1275.2567132261433,36.6778,-76.3023
"Cheshire, NH",Cheshire,NH,372.4456180118514,42.9193,-72.2512
"Chester, PA",Chester,PA,2213.4665961671235,39.9731,-75.7484
"Chester, SC",Chester,SC,441.84553773837564,34.6921,-81.1597
"Chester, TN",Chester,TN,164.6401883822108,35.4217,-88.6135
"Chesterfield, SC",Chesterfield,SC,620.2417577035627,34.6398,-80.1587
"Chesterfield, VA",Chesterfield,VA,1663.2568289898556,37.3785,-77.587
"Cheyenne, CO",Cheyenne,CO,9.838102399116432,38.8279,-102.6036
"Cheyenne, KS",Cheyenne,KS,8.043981223224561,39.7859,-101.7319
"Cheyenne, NE",Cheyenne,NE,111.45158891935719,41.2198,-102.995
"Chickasaw, IA",Chickasaw,IA,50.44039038429511,43.0601,-92.3177
"Chickasaw, MS",Chickasaw,MS,212.04308866460477,33.9208,-88.9479
"Chicot, AR",Chicot,AR,132.84590605637132,33.267,-91.2937
"Childress, TX",Childress,TX,16.837889245626243,34.5291,-100.2076
"Chilton, AL",Chilton,AL,486.8439359967082,32.8479,-86.7188
"Chippewa, MI",Chippewa,MI,401.450769081798,46.3053,-84.578
"Chippewa, MN",Chippewa,MN,78.64425788934062,45.0223,-95.5667
"Chippewa, WI",Chippewa,WI,566.0498765439048,45.0694,-91.2799
"Chisago, MN",Chisago,MN,216.06375830404642,45.5025,-92.9083
"Chittenden, VT",Chittenden,VT,1077.062845059783,44.4611,-73.0813
"Choctaw, AL",Choctaw,AL,172.24319572647542,32.0198,-88.2632
"Choctaw, MS",Choctaw,MS,90.64292873811253,33.3473,-89.2484
"Choctaw, OK",Choctaw,OK,274.44335675132373,34.0266,-95.5522
"Chouteau, MT",Chouteau,MT,49.041398436330226,47.8806,-110.4353
"Chowan, NC",Chowan,NC,256.4457419763917,36.1508,-76.6079
"Christian, IL",Christian,IL,417.64532005141007,39.5458,-89.2773
"Christian, KY",Christian,KY,658.6495744513076,36.8941,-87.4904
"Christian, MO",Christian,MO,429.84551251721405,36.9696,-93.1889
"Chugach Census Area, AK",Chugach Census Area,AK,42.630959649275546,60.7233,-145.7583
"Churchill, NV",Churchill,NV,200.05170298276806,39.5809,-118.3358
"Ciales Municipio, 72",Ciales Municipio,72,0.06125964927554551,39.8283,-98.5795
"Cibola, NM",Cibola,NM,403.04514560761623,34.9125,-107.9997
"Cidra Municipio, 72",Cidra Municipio,72,0.035287510603666306,39.8283,-98.5795
"Cimarron, OK",Cimarron,OK,12.243472937344544,36.7483,-102.5178
"Citrus, FL",Citrus,FL,1684.653546128289,28.8489,-82.4794
"Clackamas, OR",Clackamas,OR,3166.073140351922,45.188,-122.2208
"Claiborne, MS",Claiborne,MS,129.0580835670739,31.9737,-90.9118
"Claiborne, TN",Claiborne,TN,402.8375582393717,36.4859,-83.6604
"Claiborne Parish, LA",Claiborne Parish,LA,285.8480323980273,32.8227,-92.9958
"Clallam, WA",Clallam,WA,879.0515934630148,48.0493,-123.9308
"Clare, MI",Clare,MI,436.454745934841,43.9879,-84.8478
"Clarendon, SC",Clarendon,SC,429.84378421880143,33.6658,-80.2164
"Clarion, PA",Clarion,PA,468.4434891860136,41.1924,-79.421
"Clark, AR",Clark,AR,207.84271751661544,34.051,-93.1764
"Clark, ID",Clark,ID,1.8463463355481113,44.2839,-112.3512
"Clark, IL",Clark,IL,161.64724858688157,39.3336,-87.7877
"Clark, IN",Clark,IN,725.2478410956558,38.4772,-85.7073
"Clark, KS",Clark,KS,6.043136939004007,37.2355,-99.8203
"Clark, KY",Clark,KY,358.24577073768376,37.9708,-84.1474
"Clark, MO",Clark,MO,36.651020293906534,40.4103,-91.7384
"Clark, NV",Clark,NV,22228.05519213465,36.2152,-115.0135
"Clark, OH",Clark,OH,2037.846463102349,39.9167,-83.7844
"Clark, SD",Clark,SD,6.2400967713269155,44.8582,-97.7295
"Clark, WA",Clark,WA,4679.063392353275,45.7792,-122.4825
"Clark, WI",Clark,WI,271.0464235152828,44.7347,-90.6121
"Clarke, AL",Clarke,AL,380.4467180865424,31.6767,-87.8308
"Clarke, GA",Clarke,GA,986.8409483270325,33.9512,-83.3673
"Clarke, IA",Clarke,IA,105.04097988742043,41.029,-93.7852
"Clarke, MS",Clarke,MS,215.43882989333463,32.0414,-88.6894
"Clarke, VA",Clarke,VA,29.85573035853428,39.1123,-77.9967
"Clatsop, OR",Clatsop,OR,539.0603097883617,45.995,-123.6557
"Clay, AL",Clay,AL,163.6401341144107,33.269,-85.8605
"Clay, AR",Clay,AR,146.23757515205023,36.3683,-90.4173
"Clay, FL",Clay,FL,1414.4493029825003,29.9831,-81.8579
"Clay, GA",Clay,GA,64.04800310446622,31.6262,-84.9801
"Clay, IA",Clay,IA,150.04188038046746,43.0826,-95.1509
"Clay, IL",Clay,IL,185.2511366942678,38.7542,-88.4902
"Clay, IN",Clay,IN,218.64555175014866,39.3928,-87.1158
"Clay, KS",Clay,KS,44.643659798491356,39.3497,-97.1652
"Clay, KY",Clay,KY,479.0464042725566,37.1597,-83.7146
"Clay, MN",Clay,MN,454.85274045549755,46.8923,-96.4906
"Clay, MO",Clay,MO,1307.0521265809557,39.3105,-94.4209
"Clay, MS",Clay,MS,318.2430656465238,33.6557,-88.7816
"Clay, NC",Clay,NC,105.64564440370253,35.0572,-83.7502
"Clay, NE",Clay,NE,33.24781398508455,40.5244,-98.0513
"Clay, SD",Clay,SD,120.4407429231162,42.9146,-96.9756
"Clay, TN",Clay,TN,142.04005861540705,36.5511,-85.5439
"Clay, TX",Clay,TX,67.24564242204232,33.7855,-98.2085
"Clay, WV",Clay,WV,173.05693591794304,38.4625,-81.0751
"Clayton, GA",Clayton,GA,3954.6459489142517,33.5419,-84.3576
"Clayton, IA",Clayton,IA,106.04097011271777,42.8447,-91.3414
"Clear Creek, CO",Clear Creek,CO,44.25271055468268,39.6891,-105.6444
"Clearfield, PA",Clearfield,PA,1202.445514315961,41.0,-78.4742
"Clearwater, ID",Clearwater,ID,48.85137389283466,46.6736,-115.6567
"Clearwater, MN",Clearwater,MN,83.45147132785127,47.5777,-95.379
"Cleburne, AL",Cleburne,AL,177.63995687125814,33.6745,-85.5188
"Cleburne, AR",Cleburne,AR,188.64289878417736,35.5382,-92.0267
"Clermont, OH",Clermont,OH,1250.8489716599152,39.0476,-84.1517
"Cleveland, AR",Cleveland,AR,76.44337321938158,33.8984,-92.1852
"Cleveland, NC",Cleveland,NC,1477.2427029432758,35.3341,-81.5555
"Cleveland, OK",Cleveland,OK,2175.049144950464,35.2031,-97.3265
"Clinch, GA",Clinch,GA,108.03886301697096,30.915,-82.7063
"Clinton, IA",Clinton,IA,506.244698722646,41.898,-90.532
"Clinton, IL",Clinton,IL,238.45039852380518,38.6065,-89.4225
"Clinton, IN",Clinton,IN,159.2391557661134,40.3017,-86.4751
"Clinton, KY",Clinton,KY,160.04603796977628,36.7274,-85.1362
"Clinton, MI",Clinton,MI,379.6487428174668,42.9437,-84.6015
"Clinton, MO",Clinton,MO,119.85206004833917,39.6018,-94.4046
"Clinton, NY",Clinton,NY,1106.848281183327,44.7462,-73.6782
"Clinton, OH",Clinton,OH,417.2413002071565,39.4149,-83.8084
"Clinton, PA",Clinton,PA,518.048607473453,41.234,-77.6385
"Cloud, KS",Cloud,KS,39.2410628620672,39.4803,-97.6492
"Coahoma, MS",Coahoma,MS,477.24641408621113,34.23,-90.6018
"Coal, OK",Coal,OK,75.64830591073758,34.5882,-96.2978
"Coamo Municipio, 72",Coamo Municipio,72,0.04625964927554551,39.8283,-98.5795
"Cobb, GA",Cobb,GA,3699.049606163004,33.9416,-84.5767
"Cochise, AZ",Cochise,AZ,1504.453280049176,31.8796,-109.7512
"Cochran, TX",Cochran,TX,45.04050680944347,33.6042,-102.8285
"Cocke, TN",Cocke,TN,562.8402371338054,35.9254,-83.1212
"Coconino, AZ",Coconino,AZ,1144.0641749779768,35.8387,-111.7705
"Codington, SD",Codington,SD,171.84006422856453,44.9779,-97.1886
"Coffee, AL",Coffee,AL,512.4437869344173,31.4027,-85.9882
"Coffee, GA",Coffee,GA,555.836598852878,31.5493,-82.8492
"Coffee, TN",Coffee,TN,507.23945661188003,35.4906,-86.0748
"Coffey, KS",Coffey,KS,57.847066308525264,38.2369,-95.7341
"Coke, TX",Coke,TX,27.434916915911042,31.8886,-100.53
"Colbert, AL",Colbert,AL,768.2436995960096,34.7005,-87.8049
"Cole, MO",Cole,MO,374.8450475255053,38.5054,-92.2816
"Coleman, TX",Coleman,TX,65.83933105451982,31.7732,-99.4536
"Coles, IL",Coles,IL,699.2455812738957,39.5203,-88.2217
"Colfax, NE",Colfax,NE,56.64369848384438,41.574,-97.0865
"Colfax, NM",Colfax,NM,262.04340063212265,36.6061,-104.6468
"Colleton, SC",Colleton,SC,748.6418503467582,32.8638,-80.6671
"Collier, FL",Collier,FL,1862.2564769009637,26.1108,-81.3474
"Collin, TX",Collin,TX,2435.4563252870316,33.188,-96.5724
"Collingsworth, TX",Collingsworth,TX,35.03889023768095,34.9648,-100.27
"Colonial Heights City, VA",Colonial Heights City,VA,172.65157155869417,37.265,-77.3969
"Colorado, TX",Colorado,TX,143.2412114604375,29.6208,-96.5263
"Colquitt, GA",Colquitt,GA,603.0362169170911,31.1884,-83.7688
"Columbia, AR",Columbia,AR,227.24273553535085,33.2143,-93.2273
"Columbia, FL",Columbia,FL,1057.2470603939132,30.2242,-82.6215
"Columbia, GA",Columbia,GA,656.4478911891626,33.5441,-82.2641
"Columbia, NY",Columbia,NY,471.4513199668653,42.2501,-73.6318
"Columbia, OR",Columbia,OR,646.467173489894,45.9438,-123.0883
"Columbia, PA",Columbia,PA,527.4523700311825,41.0486,-76.4052
"Columbia, WA",Columbia,WA,56.64763378426827,46.2975,-117.9078
"Columbia, WI",Columbia,WI,423.2484925211603,43.4666,-89.3337
"Columbiana, OH",Columbiana,OH,1216.243540377874,40.7684,-80.7772
"Columbus, NC",Columbus,NC,858.6434650576255,34.2657,-78.655
"Colusa, CA",Colusa,CA,213.06785430483444,39.1775,-122.237
"Comal, TX",Comal,TX,616.2488335409773,29.8082,-98.2783
"Comanche, KS",Comanche,KS,8.442338391435584,37.1913,-99.2718
"Comanche, OK",Comanche,OK,1406.24606351436,34.6621,-98.4717
"Comanche, TX",Comanche,TX,78.43907399756682,31.948,-98.5582
"Comerio Municipio, 72",Comerio Municipio,72,0.04655964927554551,39.8283,-98.5795
"Concho, TX",Concho,TX,13.839752922130943,31.3266,-99.864
"Concordia Parish, LA",Concordia Parish,LA,367.8483075477311,31.4459,-91.6401
"Conecuh, AL",Conecuh,AL,154.24465354615117,31.4292,-86.9937
"Conejos, CO",Conejos,CO,113.64249757618946,37.2007,-106.1916
"Contra Costa, CA",Contra Costa,CA,6314.283721540842,37.9192,-121.9275
"Converse, WY",Converse,WY,70.05237104924137,42.9723,-105.5072
"Conway, AR",Conway,AR,233.2399891139751,35.2624,-92.7014
"Cook, GA",Cook,GA,191.0362810110346,31.154,-83.4305
"Cook, IL",Cook,IL,63412.8569196405,41.8401,-87.8168
"Cook, MN",Cook,MN,34.64328878410038,47.9026,-90.5354
"Cooke, TX",Cooke,TX,338.445056087375,33.6393,-97.2126
"Cooper, MO",Cooper,MO,84.44450987753721,38.8435,-92.8101
"Coos, NH",Coos,NH,362.03892672924457,44.6896,-71.3056
"Coos, OR",Coos,OR,1253.061034126693,43.1742,-124.0594
"Coosa, AL",Coosa,AL,114.64172093046653,32.9362,-86.2477
"Copiah, MS",Copiah,MS,359.84320933036594,31.8693,-90.4488
"Copper River Census Area, AK",Copper River Census Area,AK,31.23875964927555,61.8855,-143.97
"Corozal Municipio, 72",Corozal Municipio,72,0.03827054426074028,39.8283,-98.5795
"Corson, SD",Corson,SD,59.05202797161555,45.7086,-101.1969
"Cortland, NY",Cortland,NY,554.8471691314676,42.595,-76.0703
"Coryell, TX",Coryell,TX,573.6457968863307,31.3909,-97.7993
"Coshocton, OH",Coshocton,OH,536.044625190166,40.3017,-81.9201
"Costilla, CO",Costilla,CO,77.45096958464309,37.2781,-105.4282
"Cottle, TX",Cottle,TX,27.234998225230996,34.0776,-100.2788
"Cotton, OK",Cotton,OK,70.84346563079846,34.2902,-98.3722
"Cottonwood, MN",Cottonwood,MN,77.04487933788916,44.0071,-95.1812
"Covington, AL",Covington,AL,398.84017888320767,31.2485,-86.4513
"Covington, MS",Covington,MS,230.2387069611903,31.6332,-89.5526
"Covington City, VA",Covington City,VA,77.44453522557181,37.7785,-79.9868
"Coweta, GA",Coweta,GA,801.6471630279254,33.3533,-84.7634
"Cowley, KS",Cowley,KS,272.243225755575,37.2377,-96.8375
"Cowlitz, WA",Cowlitz,WA,1613.85394164929,46.1932,-122.681
"Craig, OK",Craig,OK,148.64552566984773,36.7618,-95.2085
"Craig, VA",Craig,VA,47.04445849001648,37.4817,-80.2114
"Craighead, AR",Craighead,AR,1013.4437282829316,35.8308,-90.6328
"Crane, TX",Crane,TX,18.03713978502046,31.4286,-102.5156
"Craven, NC",Craven,NC,1113.0533653157977,35.1249,-77.0939
"Crawford, AR",Crawford,AR,457.84442195179525,35.5881,-94.2428
"Crawford, GA",Crawford,GA,132.64005591794947,32.7145,-83.9863
"Crawford, IA",Crawford,IA,91.4424920683901,42.0372,-95.382
"Crawford, IL",Crawford,IL,218.84854383537333,39.0027,-87.7596
"Crawford, IN",Crawford,IN,115.4404347013011,38.2924,-86.4517
"Crawford, KS",Crawford,KS,390.04624183036634,37.5073,-94.8518
"Crawford, MI",Crawford,MI,168.64865726806713,44.6837,-84.6103
"Crawford, MO",Crawford,MO,206.24750554547333,37.9764,-91.3039
"Crawford, OH",Crawford,OH,535.0436936151696,40.8508,-82.9198
"Crawford, PA",Crawford,PA,1176.4453971392438,41.6847,-80.1062
"Crawford, WI",Crawford,WI,137.44183665805522,43.2395,-90.931
"Creek, OK",Creek,OK,778.2466498233515,35.9026,-96.3709
"Crenshaw, AL",Crenshaw,AL,186.84062815638706,31.7315,-86.3136
"Crisp, GA",Crisp,GA,488.8374363795532,31.9229,-83.7681
"Crittenden, AR",Crittenden,AR,617.4476837934882,35.2057,-90.3078
"Crittenden, KY",Crittenden,KY,98.84566659708815,37.3527,-88.0972
"Crockett, TN",Crockett,TN,154.43831932300725,35.8135,-89.1395
"Crockett, TX",Crockett,TX,0.03798808470627945,30.7231,-101.412
"Crook, OR",Crook,OR,317.462733600419,44.1422,-120.3566
"Crook, WY",Crook,WY,2.252802651713388,44.5885,-104.5699
"Crosby, TX",Crosby,TX,102.44314904489599,33.6147,-101.3
"Cross, AR",Cross,AR,163.43978930098876,35.2957,-90.7711
"Crow Wing, MN",Crow Wing,MN,468.04264096468006,46.4824,-94.0709
"Crowley, CO",Crowley,CO,64.84444896852307,38.3266,-103.7845
"Culberson, TX",Culberson,TX,40.84070469645808,31.447,-104.5173
"Culebra Municipio, 72",Culebra Municipio,72,0.02765964927554551,39.8283,-98.5795
"Cullman, AL",Cullman,AL,714.2406035712512,34.1319,-86.8676
"Culpeper, VA",Culpeper,VA,350.45213694529565,38.486,-77.9558
"Cumberland, IL",Cumberland,IL,68.44312530402323,39.2733,-88.2402
"Cumberland, KY",Cumberland,KY,134.43849476865137,36.7866,-85.3885
"Cumberland, ME",Cumberland,ME,1845.6574492770158,43.8466,-70.3996
"Cumberland, NC",Cumberland,NC,4827.652639977469,35.0487,-78.8277
"Cumberland, NJ",Cumberland,NJ,1724.4702484422828,39.3739,-75.1107
"Cumberland, PA",Cumberland,PA,1517.2541498000705,40.1636,-77.2655
"Cumberland, TN",Cumberland,TN,562.8408480018157,35.9504,-84.9984
"Cumberland, VA",Cumberland,VA,161.24422289684028,37.5121,-78.245
"Cuming, NE",Cuming,NE,33.04261838573126,41.9164,-96.7874
"Currituck, NC",Currituck,NC,126.65763732336988,36.405,-76.0079
"Curry, NM",Curry,NM,811.0444507115837,34.5742,-103.347
"Curry, OR",Curry,OR,376.6665104700462,42.4576,-124.1568
"Custer, CO",Custer,CO,28.842493935931554,38.1087,-105.3675
"Custer, ID",Custer,ID,16.44874017428103,44.2411,-114.2817
"Custer, MT",Custer,MT,85.84493514610269,46.2527,-105.5717
"Custer, NE",Custer,NE,74.64808088437977,41.3943,-99.7262
"Custer, OK",Custer,OK,259.2442195621137,35.6388,-99.0015
"Custer, SD",Custer,SD,40.24988896241418,43.6776,-103.4515
"Cuyahoga, OH",Cuyahoga,OH,18289.8440706266,41.4243,-81.6586
"Dade, GA",Dade,GA,102.04291851304053,34.8546,-85.5044
"Dade, MO",Dade,MO,92.44028921233634,37.4321,-93.8503
"Daggett, UT",Daggett,UT,3.449641027840178,40.8873,-109.5077
"Dakota, MN",Dakota,MN,1657.8652959542571,44.6719,-93.0654
"Dakota, NE",Dakota,NE,120.65279392888513,42.3911,-96.5646
"Dale, AL",Dale,AL,692.6419101475972,31.4318,-85.611
"Dallam, TX",Dallam,TX,36.43634616543966,36.2779,-102.6022
"Dallas, AL",Dallas,AL,1002.4446889645908,32.326,-87.1065
"Dallas, AR",Dallas,AR,62.440714812723726,33.9699,-92.6544
"Dallas, IA",Dallas,IA,475.05138010519056,41.6849,-94.0398
"Dallas, MO",Dallas,MO,176.24602997824135,37.6804,-93.0237
"Dallas, TX",Dallas,TX,19986.24838882359,32.7666,-96.7778
"Dane, WI",Dane,WI,3684.852796865741,43.0673,-89.4181
"Daniels, MT",Daniels,MT,4.845321522321036,48.7838,-105.5485
"Danville City, VA",Danville City,VA,960.4478650275818,36.5831,-79.4087
"Dare, NC",Dare,NC,174.45272757617,35.7824,-75.7988
"Darke, OH",Darke,OH,367.2408976582293,40.1332,-84.6193
"Darlington, SC",Darlington,SC,938.2431351871753,34.3325,-79.9577
"Dauphin, PA",Dauphin,PA,2850.255196604031,40.4155,-76.7794
"Davidson, NC",Davidson,NC,1830.2409618139695,35.7933,-80.2127
"Davidson, TN",Davidson,TN,5422.647091827701,36.1695,-86.7848
"Davie, NC",Davie,NC,347.4427904136001,35.9291,-80.5445
"Daviess, IN",Daviess,IN,204.43876221420317,38.7024,-87.072
"Daviess, KY",Daviess,KY,952.2505907372848,37.7318,-87.0873
"Daviess, MO",Daviess,MO,60.04154180578372,39.9608,-93.9855
"Davis, IA",Davis,IA,41.0401378089379,40.7477,-92.4097
"Davis, UT",Davis,UT,1015.4526583749571,40.99,-112.1115
"Davison, SD",Davison,SD,142.0393222443133,43.6747,-98.146
"Dawes, NE",Dawes,NE,51.450294336465184,42.7197,-103.1354
"Dawson, GA",Dawson,GA,168.04444042621859,34.4443,-84.1706
"Dawson, MT",Dawson,MT,20.447299016557185,47.2664,-104.8995
"Dawson, NE",Dawson,NE,131.24881282744178,40.8699,-99.8196
"Dawson, TX",Dawson,TX,157.44277511835003,32.7426,-101.9476
"Day, SD",Day,SD,31.641175911589965,45.3671,-97.6074
"De Baca, NM",De Baca,NM,34.44833257500866,34.3425,-104.412
"De Soto Parish, LA",De Soto Parish,LA,445.64344240253297,32.0554,-93.7373
"De Witt, IL",De Witt,IL,151.64970755292953,40.1746,-88.9041
"Deaf Smith, TX",Deaf Smith,TX,161.04066376588224,34.966,-102.605
"Dearborn, IN",Dearborn,IN,331.24669847144963,39.1452,-84.9732
"Decatur, GA",Decatur,GA,486.83815147421234,30.8783,-84.5791
"Decatur, IA",Decatur,IA,60.238905613406615,40.7377,-93.7863
"Decatur, IN",Decatur,IN,110.24194128762363,39.307,-85.5011
"Decatur, KS",Decatur,KS,10.845213628051642,39.7847,-100.4599
"Decatur, TN",Decatur,TN,143.8385427634553,35.603,-88.1088
"Deer Lodge, MT",Deer Lodge,MT,138.64599086943548,46.0608,-113.0678
"Defiance, OH",Defiance,OH,284.0427828588907,41.3239,-84.4905
"Dekalb, AL",Dekalb,AL,843.239358110559,34.4598,-85.8041
"Dekalb, GA",Dekalb,GA,7314.849319575749,33.7716,-84.2264
"Dekalb, IL",Dekalb,IL,1185.0596191640109,41.8935,-88.7703
"Dekalb, IN",Dekalb,IN,203.24057906623648,41.3976,-84.9991
"Dekalb, MO",Dekalb,MO,58.64373096586987,39.8932,-94.4047
"Dekalb, TN",Dekalb,TN,249.03981085445048,35.9799,-85.8328
"Del Norte, CA",Del Norte,CA,380.46007467521434,41.7431,-123.8972
"Delaware, IA",Delaware,IA,133.8395231566262,42.4712,-91.3673
"Delaware, IN",Delaware,IN,1305.2472350180497,40.2275,-85.3969
"Delaware, NY",Delaware,NY,482.65110978945,42.1981,-74.9665
"Delaware, OH",Delaware,OH,624.8533619843457,40.2784,-83.0049
"Delaware, OK",Delaware,OK,511.4441713916559,36.4082,-94.8026
"Delaware, PA",Delaware,PA,5490.260358084715,39.9167,-75.3991
"Delta, CO",Delta,CO,307.4469725244794,38.8614,-107.8629
"Delta, MI",Delta,MI,430.05288092979424,45.9193,-86.9241
"Delta, TX",Delta,TX,33.441888682401206,33.3863,-95.6723
"Denali Borough, AK",Denali Borough,AK,3.0538139916413813,63.6714,-150.0118
"Dent, MO",Dent,MO,182.6456927574234,37.6066,-91.5079
"Denton, TX",Denton,TX,3190.651642333866,33.2055,-97.1168
"Denver County/City, CO",Denver County/City,CO,0.035242240875959396,39.762,-104.8758
"Des Moines, IA",Des Moines,IA,438.8454938421725,40.9232,-91.1815
"Deschutes, OR",Deschutes,OR,1464.265969110466,43.915,-121.2281
"Desha, AR",Desha,AR,207.04780197922588,33.8309,-91.2551
"Desoto, FL",Desoto,FL,571.0466689660245,27.1863,-81.8095
"Desoto, MS",Desoto,MS,1017.0468807758338,34.8753,-89.9912
"Deuel, NE",Deuel,NE,12.251471958751806,41.1116,-102.3339
"Deuel, SD",Deuel,SD,9.241922306435944,44.76,-96.668
"Dewey, OK",Dewey,OK,29.442095904815226,35.9876,-99.0079
"Dewey, SD",Dewey,SD,66.25212174822583,45.1566,-100.8718
"Dewitt, TX",Dewitt,TX,145.0444748902563,29.0821,-97.3567
"Dickens, TX",Dickens,TX,20.443282411321324,33.6165,-100.7789
"Dickenson, VA",Dickenson,VA,310.64603408436705,37.1258,-82.3504
"Dickey, ND",Dickey,ND,24.83419021619708,46.1102,-98.5047
"Dickinson, IA",Dickinson,IA,76.24151228000024,43.378,-95.1508
"Dickinson, KS",Dickinson,KS,87.44401307382645,38.8665,-97.1527
"Dickinson, MI",Dickinson,MI,212.25105736280167,46.0092,-87.8703
"Dickson, TN",Dickson,TN,375.04038945282736,36.149,-87.3567
"Dillingham Census Area, AK",Dillingham Census Area,AK,83.06263447138781,59.8003,-158.2346
"Dillon, SC",Dillon,SC,480.8427420009978,34.3915,-79.3789
"Dimmit, TX",Dimmit,TX,203.44747147832638,28.4226,-99.7566
"Dinwiddie, VA",Dinwiddie,VA,293.6518077133552,37.076,-77.6323
"District Of Columbia, DC",District Of Columbia,DC,8518.094808467891,38.9047,-77.0163
"Divide, ND",Divide,ND,7.840310923127459,48.8149,-103.4872
"Dixie, FL",Dixie,FL,247.44792856624028,29.6086,-83.1587
"Dixon, NE",Dixon,NE,26.65071452741694,42.4931,-96.8677
"Doddridge, WV",Doddridge,WV,43.85055893298612,39.2692,-80.707
"Dodge, GA",Dodge,GA,277.6367326333782,32.1722,-83.1684
"Dodge, MN",Dodge,MN,59.45388051610852,44.0226,-92.8621
"Dodge, NE",Dodge,NE,296.84450424570576,41.5779,-96.654
"Dodge, WI",Dodge,WI,690.84432534785,43.4163,-88.7075
"Dolores, CO",Dolores,CO,23.844246511375513,37.7517,-108.5174
"Dona Ana, NM",Dona Ana,NM,0.043337788723250684,32.3526,-106.8328
"Doniphan, KS",Doniphan,KS,31.847520815402063,39.7881,-95.1468
"Donley, TX",Donley,TX,12.443393525573823,34.9654,-100.814
"Dooly, GA",Dooly,GA,161.23859613724093,32.1572,-83.7988
"Door, WI",Door,WI,230.44489284926624,44.9452,-87.3154
"Dorado Municipio, 72",Dorado Municipio,72,0.03815964927554551,39.8283,-98.5795
"Dorchester, MD",Dorchester,MD,555.2435487417854,38.4829,-76.0125
"Dorchester, SC",Dorchester,SC,1000.6481562309214,33.0794,-80.4068
"Dougherty, GA",Dougherty,GA,1995.6441978022754,31.5335,-84.2164
"Douglas, CO",Douglas,CO,529.271780678639,39.3298,-104.9293
"Douglas, GA",Douglas,GA,1336.647874538722,33.7019,-84.7679
"Douglas, IL",Douglas,IL,166.0460919459507,39.7694,-88.2173
"Douglas, KS",Douglas,KS,531.8543643594819,38.8847,-95.2926
"Douglas, MN",Douglas,MN,187.44034726586193,45.9338,-95.4535
"Douglas, MO",Douglas,MO,128.445970167846,36.9326,-92.4988
"Douglas, NE",Douglas,NE,4334.453810891173,41.2953,-96.1543
"Douglas, NV",Douglas,NV,225.65502281362296,38.9123,-119.6162
"Douglas, OR",Douglas,OR,1891.4666388311937,43.2797,-123.1665
"Douglas, SD",Douglas,SD,4.640851199053129,43.3869,-98.3661
"Douglas, WA",Douglas,WA,418.4532470846379,47.7361,-119.6918
"Douglas, WI",Douglas,WI,442.84945872974026,46.4329,-91.9162
"Drew, AR",Drew,AR,226.04081691384485,33.5894,-91.72
"Dubois, IN",Dubois,IN,120.23913156831448,38.3643,-86.8798
"Dubuque, IA",Dubuque,IA,646.0448170051573,42.4688,-90.8825
"Duchesne, UT",Duchesne,UT,142.2517126628267,40.2982,-110.4252
"Dukes, MA",Dukes,MA,111.4692010403708,41.3961,-70.65
"Dundy, NE",Dundy,NE,9.646398574683246,40.1762,-101.6879
"Dunklin, MO",Dunklin,MO,551.8497356242711,36.2721,-90.0909
"Dunn, ND",Dunn,ND,8.645274938837643,47.3568,-102.6182
"Dunn, WI",Dunn,WI,403.44859714249486,44.9466,-91.8964
"Dupage, IL",Dupage,IL,5088.463685011141,41.852,-88.0856
"Duplin, NC",Duplin,NC,678.2407633915897,34.9365,-77.933
"Durham, NC",Durham,NC,2519.0515106518033,36.036,-78.8766
"Dutchess, NY",Dutchess,NY,1804.2707029797996,41.7652,-73.7429
"Duval, FL",Duval,FL,11429.048043620087,30.3313,-81.6715
"Duval, TX",Duval,TX,153.2431551317064,27.6814,-98.5089
"Dyer, TN",Dyer,TN,498.637565023479,36.0592,-89.4137
"Eagle, CO",Eagle,CO,147.45597043676446,39.6278,-106.6953
"Early, GA",Early,GA,219.64160780745885,31.3228,-84.9036
"East Baton Rouge Parish, LA",East Baton Rouge Parish,LA,5374.049886894341,30.5383,-91.0956
"East Carroll Parish, LA",East Carroll Parish,LA,149.26862013699235,32.7325,-91.235
"East Feliciana Parish, LA",East Feliciana Parish,LA,174.04590581839523,30.8451,-91.0455
"Eastland, TX",Eastland,TX,183.64636186726582,32.3271,-98.8323
"Eaton, MI",Eaton,MI,823.0495063615531,42.5961,-84.8383
"Eau Claire, WI",Eau Claire,WI,861.2514448917372,44.7268,-91.286
"Echols, GA",Echols,GA,26.23783812760276,30.7101,-82.894
"Ector, TX",Ector,TX,1361.6480196387545,31.8692,-102.5429
"Eddy, ND",Eddy,ND,13.637465149878498,47.7176,-98.9016
"Eddy, NM",Eddy,NM,597.2476916730313,32.4714,-104.3044
"Edgar, IL",Edgar,IL,290.04535369722,39.6786,-87.7456
"Edgecombe, NC",Edgecombe,NC,944.8519850833733,35.9129,-77.5971
"Edgefield, SC",Edgefield,SC,240.83965824698583,33.7722,-81.9664
"Edmonson, KY",Edmonson,KY,127.84926294000931,37.2088,-86.2384
"Edmunds, SD",Edmunds,SD,13.04092433888501,45.4188,-99.2153
"Edwards, IL",Edwards,IL,96.45022761757104,38.4165,-88.0533
"Edwards, KS",Edwards,KS,11.841285379193346,37.8876,-99.3121
"Edwards, TX",Edwards,TX,19.637809358872648,29.9827,-100.3048
"Effingham, GA",Effingham,GA,377.0444854781483,32.3674,-81.3414
"Effingham, IL",Effingham,IL,372.04854441961123,39.0598,-88.5899
"El Dorado, CA",El Dorado,CA,932.4703621671476,38.7787,-120.5247
"El Paso, CO",El Paso,CO,4948.65420190286,38.8321,-104.5254
"El Paso, TX",El Paso,TX,11891.842502265046,31.7686,-106.2348
"Elbert, CO",Elbert,CO,83.85824132396266,39.2865,-104.1357
"Elbert, GA",Elbert,GA,259.0363296970248,34.1168,-82.8401
"Elk, KS",Elk,KS,18.24710963005434,37.4537,-96.2441
"Elk, PA",Elk,PA,398.447427564064,41.4251,-78.6491
"Elkhart, IN",Elkhart,IN,984.4477492275753,41.5974,-85.8587
"Elko, NV",Elko,NV,324.65372641401177,41.1457,-115.3577
"Elliott, KY",Elliott,KY,106.64856266091603,38.1179,-83.0976
"Ellis, KS",Ellis,KS,134.8397005619732,38.9147,-99.3173
"Ellis, OK",Ellis,OK,30.6448687028164,36.2184,-99.7546
"Ellis, TX",Ellis,TX,1009.0514122450332,32.3484,-96.7947
"Ellsworth, KS",Ellsworth,KS,23.24090532192351,38.6966,-98.2048
"Elmore, AL",Elmore,AL,702.6465805408671,32.5966,-86.1492
"Elmore, ID",Elmore,ID,198.24527809206742,43.354,-115.4693
"Emanuel, GA",Emanuel,GA,442.8391030642117,32.5897,-82.3017
"Emery, UT",Emery,UT,63.84964017135835,38.9967,-110.7006
"Emmet, IA",Emmet,IA,63.44510337125149,43.3781,-94.6785
"Emmet, MI",Emmet,MI,218.64780730686093,45.5202,-84.8904
"Emmons, ND",Emmons,ND,25.041935631619875,46.2851,-100.2387
"Emporia City, VA",Emporia City,VA,154.05563201045365,36.6952,-77.5364
"Erath, TX",Erath,TX,197.44247799447092,32.2363,-98.2179
"Erie, NY",Erie,NY,12814.05383250032,42.7639,-78.7323
"Erie, OH",Erie,OH,741.4425129921077,41.3641,-82.6194
"Erie, PA",Erie,PA,4133.246794157473,41.9925,-80.0327
"Escambia, AL",Escambia,AL,399.8411912277302,31.1261,-87.1615
"Escambia, FL",Escambia,FL,3772.2479050107577,30.669,-87.363
"Esmeralda, NV",Esmeralda,NV,35.85158193507171,37.7846,-117.6323
"Essex, MA",Essex,MA,9971.87364231319,42.6732,-70.9524
"Essex, NJ",Essex,NJ,9176.67086374683,40.788,-74.2481
"Essex, NY",Essex,NY,297.84516712133035,44.1172,-73.7726
"Essex, VA",Essex,VA,132.84814744328705,37.9428,-76.9519
"Essex, VT",Essex,VT,103.04541910695878,44.7275,-71.7359
"Estill, KY",Estill,KY,316.043073450543,37.6924,-83.9643
"Etowah, AL",Etowah,AL,1223.2415640986846,34.0453,-86.0348
"Eureka, NV",Eureka,NV,3.856418350585856,39.9838,-116.2686
"Evangeline Parish, LA",Evangeline Parish,LA,688.6450201333917,30.7289,-92.406
"Evans, GA",Evans,GA,135.83635869310993,32.1568,-81.8869
"Fairbanks North Star Borough, AK",Fairbanks North Star Borough,AK,470.2617578162536,64.8078,-146.5654
"Fairfax, VA",Fairfax,VA,3440.6728793793714,38.8368,-77.277
"Fairfax City, VA",Fairfax City,VA,46.26874068182996,38.8368,-77.277
"Fairfield, OH",Fairfield,OH,1082.2480753106204,39.7516,-82.6306
"Fairfield, SC",Fairfield,SC,324.04788222658084,34.3951,-81.1212
"Fajardo Municipio, 72",Fajardo Municipio,72,0.04355964927554551,39.8283,-98.5795
"Fall River, SD",Fall River,SD,81.84562163741403,43.2394,-103.5275
"Fallon, MT",Fallon,MT,6.443897834861088,46.334,-104.4174
"Falls, TX",Falls,TX,181.04245238605665,31.2533,-96.9359
"Falls Church City, VA",Falls Church City,VA,22.074453394095688,38.8847,-77.1751
"Fannin, GA",Fannin,GA,310.640306553345,34.8641,-84.3198
"Fannin, TX",Fannin,TX,302.642420961746,33.5938,-96.1069
"Faribault, MN",Faribault,MN,119.44380685017148,43.6739,-93.948
"Faulk, SD",Faulk,SD,1.6381937922115883,45.071,-99.1453
"Faulkner, AR",Faulkner,AR,744.8447689844123,35.147,-92.332
"Fauquier, VA",Fauquier,VA,268.45868901140705,38.7386,-77.8092
"Fayette, AL",Fayette,AL,214.6393142116091,33.7212,-87.7388
"Fayette, GA",Fayette,GA,398.05366273954354,33.414,-84.4943
"Fayette, IA",Fayette,IA,135.24097379140073,42.8626,-91.8444
"Fayette, IL",Fayette,IL,198.44957529884528,39.0002,-89.0241
"Fayette, IN",Fayette,IN,275.0426105969352,39.64,-85.1788
"Fayette, KY",Fayette,KY,2346.049567990265,38.0423,-84.4587
"Fayette, OH",Fayette,OH,324.8428794703633,39.5599,-83.4561
"Fayette, PA",Fayette,PA,2564.4493221394287,39.9201,-79.6474
"Fayette, TN",Fayette,TN,346.43899196811014,35.197,-89.4142
"Fayette, TX",Fayette,TX,144.4428618436587,29.8768,-96.9198
"Fayette, WV",Fayette,WV,712.6548157839516,38.0287,-81.0812
"Fentress, TN",Fentress,TN,366.6373211268606,36.3805,-84.9324
"Fergus, MT",Fergus,MT,80.24419137319533,47.2636,-109.2245
"Ferry, WA",Ferry,WA,111.64989345020241,48.4703,-118.5166
"Fillmore, MN",Fillmore,MN,126.4507229019494,43.674,-92.0902
"Fillmore, NE",Fillmore,NE,24.640362043719147,40.5247,-97.5965
"Finney, KS",Finney,KS,315.0401284405213,38.0443,-100.737
"Fisher, TX",Fisher,TX,32.638648801426555,32.7428,-100.4022
"Flagler, FL",Flagler,FL,748.0527629302422,29.4614,-81.3136
"Flathead, MT",Flathead,MT,585.8495751851716,48.2951,-114.0497
"Fleming, KY",Fleming,KY,223.043019548917,38.3701,-83.6967
"Florence, SC",Florence,SC,1603.2429664199283,34.0245,-79.703
"Florence, WI",Florence,WI,46.84311226728195,45.8485,-88.3981
"Florida Municipio, 72",Florida Municipio,72,0.04475964927554551,39.8283,-98.5795
"Floyd, GA",Floyd,GA,1050.8418760772647,34.2632,-85.2143
"Floyd, IA",Floyd,IA,109.4434577491321,43.0599,-92.789
"Floyd, IN",Floyd,IN,456.0475109171086,38.3187,-85.907
"Floyd, KY",Floyd,KY,657.8455404267157,37.5571,-82.7457
"Floyd, TX",Floyd,TX,59.24168166432879,34.0724,-101.3032
"Floyd, VA",Floyd,VA,97.04567637285305,36.9316,-80.3625
"Fluvanna, VA",Fluvanna,VA,107.05735928621259,37.8419,-78.2773
"Foard, TX",Foard,TX,8.240015428893072,33.9746,-99.778
"Fond Du Lac, WI",Fond Du Lac,WI,754.0442843383888,43.7536,-88.4883
"Ford, IL",Ford,IL,201.04963504098131,40.5972,-88.2233
"Ford, KS",Ford,KS,163.24080489126436,37.6917,-99.888
"Forest, PA",Forest,PA,61.64809582150122,41.513,-79.236
"Forest, WI",Forest,WI,117.84729115029505,45.6673,-88.7704
"Forrest, MS",Forrest,MS,972.6439548052539,31.1889,-89.2579
"Forsyth, GA",Forsyth,GA,423.25336879421803,34.2255,-84.125
"Forsyth, NC",Forsyth,NC,4176.8448122648615,36.1306,-80.2564
"Fort Bend, TX",Fort Bend,TX,3880.056152149029,29.5275,-95.7709
"Foster, ND",Foster,ND,29.63691943299852,47.4571,-98.883
"Fountain, IN",Fountain,IN,108.44086000456822,40.1209,-87.242
"Franklin, AL",Franklin,AL,442.43873703712853,34.4417,-87.8437
"Franklin, AR",Franklin,AR,169.2385437238736,35.5124,-93.8906
"Franklin, FL",Franklin,FL,169.04658662944374,29.8766,-84.8137
"Franklin, GA",Franklin,GA,257.23872985771567,34.3754,-83.2291
"Franklin, IA",Franklin,IA,59.24175555679036,42.7325,-93.2625
"Franklin, ID",Franklin,ID,74.44220054766215,42.1811,-111.8132
"Franklin, IL",Franklin,IL,763.6516504362436,37.9923,-88.9242
"Franklin, IN",Franklin,IN,84.44111178913717,39.4149,-85.0602
"Franklin, KS",Franklin,KS,139.44517702015438,38.5645,-95.2859
"Franklin, KY",Franklin,KY,542.6425236696821,38.2391,-84.8771
"Franklin, MA",Franklin,MA,1016.0563937231318,42.5831,-72.5918
"Franklin, ME",Franklin,ME,358.4431439324939,44.974,-70.444
"Franklin, MO",Franklin,MO,646.245417955837,38.4111,-91.075
"Franklin, MS",Franklin,MS,85.84271577382,31.4772,-90.8979
"Franklin, NC",Franklin,NC,706.6455600658072,36.0827,-78.2857
"Franklin, NE",Franklin,NE,18.650123223063456,40.1763,-98.9528
"Franklin, NY",Franklin,NY,640.6449913767043,44.5929,-74.3038
"Franklin, OH",Franklin,OH,11904.050987866505,39.9695,-83.0093
"Franklin, PA",Franklin,PA,1363.6526158070283,39.9274,-77.7213
"Franklin, TN",Franklin,TN,294.44008603487606,35.1556,-86.0937
"Franklin, TX",Franklin,TX,54.44011893992051,33.1755,-95.2184
"Franklin, VA",Franklin,VA,520.0468002791689,36.992,-79.8811
"Franklin, VT",Franklin,VT,455.25678439255023,44.8576,-72.9131
"Franklin, WA",Franklin,WA,1137.64899842547,46.5347,-118.899
"Franklin City, VA",Franklin City,VA,163.04850429256794,36.992,-79.8811
"Franklin Parish, LA",Franklin Parish,LA,347.64519987143643,32.1333,-91.6738
"Frederick, MD",Frederick,MD,1453.4548850370468,39.4722,-77.398
"Frederick, VA",Frederick,VA,429.0533442547644,39.2046,-78.2626
"Fredericksburg City, VA",Fredericksburg City,VA,271.8603380758211,38.2992,-77.4872
"Freeborn, MN",Freeborn,MN,241.8441841197671,43.6738,-93.3488
"Freestone, TX",Freestone,TX,212.84426483563982,31.7049,-96.1491
"Fremont, CO",Fremont,CO,548.6481690371197,38.4731,-105.4395
"Fremont, IA",Fremont,IA,58.84185585588757,40.7456,-95.6047
"Fremont, ID",Fremont,ID,86.24552258018336,44.2288,-111.4819
"Fremont, WY",Fremont,WY,228.2560266617029,43.0405,-108.6304
"Fresno, CA",Fresno,CA,13203.658758929383,36.7582,-119.6493
"Frio, TX",Frio,TX,233.24603888539488,28.8678,-99.1082
"Frontier, NE",Frontier,NE,23.65195767913752,40.5301,-100.3942
"Fulton, AR",Fulton,AR,129.6432804140784,36.3817,-91.8182
"Fulton, GA",Fulton,GA,10963.451100858394,33.7903,-84.4671
"Fulton, IL",Fulton,IL,447.04684134431614,40.4728,-90.2075
"Fulton, IN",Fulton,IN,165.0412719722014,41.047,-86.2635
"Fulton, KY",Fulton,KY,119.24452174102447,36.554,-89.1874
"Fulton, NY",Fulton,NY,680.8459946048669,43.1138,-74.4222
"Fulton, OH",Fulton,OH,269.447623819571,41.6018,-84.1301
"Fulton, PA",Fulton,PA,163.64791969644838,39.9254,-78.1127
"Furnas, NE",Furnas,NE,21.448777172792383,40.1764,-99.9123
"Gadsden, FL",Gadsden,FL,820.4476449645354,30.5795,-84.6137
"Gage, NE",Gage,NE,219.4458597512474,40.2619,-96.6894
"Gaines, TX",Gaines,TX,97.44117804641124,32.7408,-102.6352
"Galax City, VA",Galax City,VA,108.84097517271105,36.666,-80.9176
"Gallatin, IL",Gallatin,IL,91.45265574079707,37.7628,-88.2305
"Gallatin, KY",Gallatin,KY,76.24991727642812,38.7569,-84.8593
"Gallatin, MT",Gallatin,MT,321.8532984671176,45.5404,-111.1704
"Gallia, OH",Gallia,OH,411.84594922597756,38.8247,-82.3169
"Galveston, TX",Galveston,TX,2909.650286992466,29.3944,-94.9642
"Garden, NE",Garden,NE,16.05198532861892,41.6194,-102.3354
"Garfield, CO",Garfield,CO,396.84819263864546,39.5993,-107.904
"Garfield, MT",Garfield,MT,2.8427968827931798,47.2776,-106.9929
"Garfield, NE",Garfield,NE,5.051267370676172,41.9144,-98.9914
"Garfield, OK",Garfield,OK,714.6451470163762,36.3791,-97.7827
"Garfield, UT",Garfield,UT,16.451001987170933,37.8549,-111.4432
"Garfield, WA",Garfield,WA,28.841637860819972,46.4316,-117.5452
"Garland, AR",Garland,AR,893.4447691012765,34.5767,-93.1504
"Garrard, KY",Garrard,KY,194.04039894687372,37.6396,-84.5377
"Garrett, MD",Garrett,MD,388.44085526453756,39.5289,-79.2729
"Garvin, OK",Garvin,OK,239.24652746216282,34.7046,-97.3093
"Garza, TX",Garza,TX,42.84052142678579,33.1799,-101.2984
"Gasconade, MO",Gasconade,MO,112.84489349547434,38.4409,-91.5079
"Gaston, NC",Gaston,NC,2941.446724255426,35.2944,-81.1803
"Gates, NC",Gates,NC,107.6479367149262,36.4449,-76.7005
"Geary, KS",Geary,KS,250.65016324890462,39.0024,-96.7525
"Geauga, OH",Geauga,OH,300.2435400235642,41.4996,-81.1786
"Gem, ID",Gem,ID,95.24647359851811,44.0615,-116.3975
"Genesee, MI",Genesee,MI,6321.251255106388,43.0217,-83.7067
"Genesee, NY",Genesee,NY,633.8439686241965,43.0009,-78.1937
"Geneva, AL",Geneva,AL,358.2388001368335,31.095,-85.8391
"Gentry, MO",Gentry,MO,41.24401665999105,40.2121,-94.4099
"George, MS",George,MS,186.04395378294723,30.8626,-88.644
"Georgetown, SC",Georgetown,SC,608.8474022430303,33.4343,-79.3327
"Gibson, IN",Gibson,IN,189.4403233176406,38.3119,-87.5846
"Gibson, TN",Gibson,TN,633.8383526336264,35.9966,-88.9326
"Gila, AZ",Gila,AZ,668.2501219729581,33.7997,-110.8116
"Gilchrist, FL",Gilchrist,FL,231.04636993759934,29.7258,-82.8004
"Giles, TN",Giles,TN,286.2409981342186,35.2021,-87.0348
"Giles, VA",Giles,VA,137.455275571,37.3142,-80.7029
"Gillespie, TX",Gillespie,TX,88.64220364485142,30.3181,-98.9465
"Gilliam, OR",Gilliam,OR,23.259996720632266,45.3783,-120.2108
"Gilmer, GA",Gilmer,GA,233.0381900762538,34.6912,-84.4556
"Gilmer, WV",Gilmer,WV,97.45008513664361,38.9241,-80.8571
"Gilpin, CO",Gilpin,CO,46.25750257935266,39.8575,-105.5226
"Glacier, MT",Glacier,MT,182.04608653385765,48.7051,-112.9947
"Glades, FL",Glades,FL,145.65497157784407,26.9564,-81.189
"Gladwin, MI",Gladwin,MI,314.0508013240762,43.9907,-84.3883
"Glascock, GA",Glascock,GA,30.837354206583488,33.2293,-82.6107
"Glasscock, TX",Glasscock,TX,7.440031972561575,31.8694,-101.5208
"Glenn, CA",Glenn,CA,259.85860652935617,39.5981,-122.3919
"Gloucester, NJ",Gloucester,NJ,1474.6621653367238,39.7173,-75.1414
"Gloucester, VA",Gloucester,VA,223.4509060505073,37.416,-76.5434
"Glynn, GA",Glynn,GA,928.042085269383,31.2309,-81.5407
"Gogebic, MI",Gogebic,MI,235.45520417679697,46.4087,-89.6943
"Golden Valley, MT",Golden Valley,MT,2.046242010007571,46.3812,-109.1752
"Golden Valley, ND",Golden Valley,ND,21.23988173542401,46.9402,-103.8466
"Goliad, TX",Goliad,TX,68.24565103535029,28.6571,-97.4264
"Gonzales, TX",Gonzales,TX,215.24078630617421,29.4567,-97.4925
"Goochland, VA",Goochland,VA,86.45710044308244,37.7221,-77.9158
"Goodhue, MN",Goodhue,MN,277.0465989367546,44.4097,-92.7229
"Gooding, ID",Gooding,ID,107.0411795186472,42.971,-114.8115
"Gordon, GA",Gordon,GA,369.8375966367221,34.5032,-84.8759
"Goshen, WY",Goshen,WY,84.4534080967394,42.0879,-104.3533
"Gosper, NE",Gosper,NE,9.447425469970737,40.5148,-99.8307
"Gove, KS",Gove,KS,6.843186557347014,38.9161,-100.483
"Grady, GA",Grady,GA,431.0366323120583,30.8747,-84.2345
"Grady, OK",Grady,OK,488.4452418137846,35.0169,-97.8841
"Grafton, NH",Grafton,NH,497.8443470280036,43.9407,-71.8208
"Graham, AZ",Graham,AZ,360.8489835387196,32.9326,-109.8875
"Graham, KS",Graham,KS,12.04461354438563,39.3497,-99.8832
"Graham, NC",Graham,NC,80.84265205057335,35.3502,-83.8335
"Grainger, TN",Grainger,TN,234.4376464733025,36.2763,-83.5096
"Grand, CO",Grand,CO,66.44819725516959,40.1026,-106.1183
"Grand, UT",Grand,UT,67.05003750615819,38.982,-109.5698
"Grand Forks, ND",Grand Forks,ND,406.65389432407414,47.9219,-97.4569
"Grand Isle, VT",Grand Isle,VT,64.0573697601569,44.7981,-73.2948
"Grand Traverse, MI",Grand Traverse,MI,636.0476802074152,44.6687,-85.5605
"Granite, MT",Granite,MT,23.04702342178898,46.4045,-113.4404
"Grant, AR",Grant,AR,106.6422883311294,34.29,-92.4237
"Grant, IN",Grant,IN,742.4431685084204,40.5158,-85.6547
"Grant, KS",Grant,KS,9.442697593423151,37.5623,-101.308
"Grant, KY",Grant,KY,247.44844153744046,38.6488,-84.6246
"Grant, MN",Grant,MN,35.64490177474422,45.9341,-96.0122
"Grant, ND",Grant,ND,22.439305300823875,46.3583,-101.6397
"Grant, NE",Grant,NE,1.2507115888796456,41.915,-101.7406
"Grant, NM",Grant,NM,451.64369273284086,32.7389,-108.3824
"Grant, OK",Grant,OK,29.646204610880794,36.7961,-97.7861
"Grant, OR",Grant,OR,98.25860172071414,44.4916,-119.0073
"Grant, SD",Grant,SD,34.641639084629816,45.1719,-96.7677
"Grant, WA",Grant,WA,1083.0477057702315,47.2057,-119.4518
"Grant, WI",Grant,WI,409.8415115191379,42.8675,-90.7062
"Grant, WV",Grant,WV,132.64946609533874,39.1051,-79.1956
"Grant Parish, LA",Grant Parish,LA,277.4432260601334,31.5997,-92.5595
"Granville, NC",Granville,NC,549.4442285602796,36.304,-78.6527
"Gratiot, MI",Gratiot,MI,422.246918235514,43.2927,-84.6049
"Graves, KY",Graves,KY,411.4432319458843,36.7231,-88.6512
"Gray, KS",Gray,KS,8.63917106286696,37.7382,-100.4379
"Gray, TX",Gray,TX,207.84310355428028,35.4012,-100.8126
"Grays Harbor, WA",Grays Harbor,WA,1114.8509187556845,47.1503,-123.7735
"Grayson, KY",Grayson,KY,217.4465017228039,37.4608,-86.3439
"Grayson, TX",Grayson,TX,958.6468145849585,33.6268,-96.6777
"Grayson, VA",Grayson,VA,212.84438936264044,36.6565,-81.2249
"Greater Bridgeport Planning Region, CT",Greater Bridgeport Planning Region,CT,3356.234259649276,41.2428,-73.2314
"Greeley, KS",Greeley,KS,1.8432782109085748,38.4806,-101.806
"Greeley, NE",Greeley,NE,9.450952539966382,41.5674,-98.5212
"Green, KY",Green,KY,168.8415087580208,37.264,-85.5531
"Green, WI",Green,WI,254.84204841518536,42.68,-89.6022
"Green Lake, WI",Green Lake,WI,191.04252842830496,43.8004,-89.0449
"Greenbrier, WV",Greenbrier,WV,519.8529748397402,37.9469,-80.453
"Greene, AL",Greene,AL,183.24949434667104,32.8531,-87.9522
"Greene, AR",Greene,AR,532.0408312740847,36.1176,-90.5591
"Greene, GA",Greene,GA,105.4396055009971,33.5788,-83.1667
"Greene, IA",Greene,IA,78.44026335771095,42.0363,-94.3968
"Greene, IL",Greene,IL,135.6453269448567,39.3562,-90.3905
"Greene, IN",Greene,IN,284.8402404791579,39.0364,-86.9621
"Greene, MO",Greene,MO,2866.8444602588397,37.2581,-93.342
"Greene, MS",Greene,MS,104.8517437602622,31.2142,-88.6392
"Greene, NC",Greene,NC,306.643463058703,35.485,-77.6758
"Greene, NY",Greene,NY,281.2532510728371,42.2765,-74.1227
"Greene, OH",Greene,OH,1041.4497891478588,39.6915,-83.8899
"Greene, PA",Greene,PA,609.8472551547856,39.8538,-80.2229
"Greene, TN",Greene,TN,611.4410172136808,36.1753,-82.8458
"Greene, VA",Greene,VA,156.05516145057683,38.2976,-78.4669
"Greenlee, AZ",Greenlee,AZ,49.44002397465322,33.2152,-109.2402
"Greensville, VA",Greensville,VA,110.45581735536925,36.6759,-77.5596
"Greenup, KY",Greenup,KY,393.25185692948514,38.5457,-82.9223
"Greenville, SC",Greenville,SC,3285.245198004341,34.8941,-82.3706
"Greenwood, KS",Greenwood,KS,76.64522173946025,37.8778,-96.2326
"Greenwood, SC",Greenwood,SC,756.2417209779151,34.1537,-82.1259
"Greer, OK",Greer,OK,89.64492074832275,34.9357,-99.5608
"Gregg, TX",Gregg,TX,1235.2447923702625,32.4805,-94.817
"Gregory, SD",Gregory,SD,26.440294222134483,43.1924,-99.1856
"Grenada, MS",Grenada,MS,158.24129893775367,33.7699,-89.802
"Griggs, ND",Griggs,ND,9.237693807113834,47.4573,-98.237
"Grimes, TX",Grimes,TX,248.44458259523634,30.5435,-95.9855
"Grundy, IA",Grundy,IA,50.44102573031444,42.4019,-92.7914
"Grundy, IL",Grundy,IL,378.65636485896306,41.2851,-88.4185
"Grundy, MO",Grundy,MO,100.84421660011063,40.1139,-93.5653
"Grundy, TN",Grundy,TN,180.84100298040067,35.3884,-85.7226
"Guadalupe, NM",Guadalupe,NM,94.84331834582875,34.8633,-104.7906
"Guadalupe, TX",Guadalupe,TX,1102.2493868665708,29.5831,-97.9486
"Guanica Municipio, 72",Guanica Municipio,72,0.07685964927554552,39.8283,-98.5795
"Guayama Municipio, 72",Guayama Municipio,72,0.04955964927554551,39.8283,-98.5795
"Guayanilla Municipio, 72",Guayanilla Municipio,72,0.06065964927554551,39.8283,-98.5795
"Guaynabo Municipio, 72",Guaynabo Municipio,72,0.03005964927554551,39.8283,-98.5795
"Guernsey, OH",Guernsey,OH,567.2457821067048,40.052,-81.4943
"Guilford, NC",Guilford,NC,6449.447082466629,36.0795,-79.7889
"Gulf, FL",Gulf,FL,158.84598825174456,29.9565,-85.2263
"Gunnison, CO",Gunnison,CO,97.44561966416491,38.6667,-107.0316
"Gurabo Municipio, 72",Gurabo Municipio,72,0.03289884701371193,39.8283,-98.5795
"Guthrie, IA",Guthrie,IA,74.8442350470002,41.6837,-94.5011
"Gwinnett, GA",Gwinnett,GA,4773.64940034147,33.9619,-84.0235
"Haakon, SD",Haakon,SD,6.443706815971801,44.2945,-101.5399
"Habersham, GA",Habersham,GA,389.4371739645137,34.631,-83.5311
"Haines Borough, AK",Haines Borough,AK,4.858559060358605,59.1186,-135.5007
"Hale, AL",Hale,AL,292.44441270918446,32.7627,-87.6291
"Hale, TX",Hale,TX,461.44222390137406,34.0705,-101.8269
"Halifax, NC",Halifax,NC,1207.2506264988801,36.2574,-77.6517
"Halifax, VA",Halifax,VA,575.2466798645781,36.7669,-78.9366
"Hall, GA",Hall,GA,1283.4430796315587,34.3171,-83.8196
"Hall, NE",Hall,NE,423.048121636736,40.8726,-98.5022
"Hall, TX",Hall,TX,30.64282234760025,34.5308,-100.6811
"Hamblen, TN",Hamblen,TN,711.4393793926605,36.2171,-83.2667
"Hamilton, FL",Hamilton,FL,280.25047934883867,30.4964,-82.9479
"Hamilton, IA",Hamilton,IA,102.63855996334071,42.3838,-93.7068
"Hamilton, IL",Hamilton,IL,101.2495375180485,38.0816,-88.5391
"Hamilton, IN",Hamilton,IN,660.458494363414,40.0725,-86.052
"Hamilton, KS",Hamilton,KS,4.239109517379584,37.9991,-101.7912
"Hamilton, NE",Hamilton,NE,40.04708682224703,40.873,-98.0229
"Hamilton, NY",Hamilton,NY,20.4479598934329,43.6611,-74.4974
"Hamilton, OH",Hamilton,OH,8442.849797926729,39.1955,-84.5428
"Hamilton, TN",Hamilton,TN,2908.0427055272357,35.1808,-85.1648
"Hamilton, TX",Hamilton,TX,75.4410415147109,31.7048,-98.1107
"Hamlin, SD",Hamlin,SD,9.639098254599187,44.6738,-97.1883
"Hampden, MA",Hampden,MA,8883.260505827933,42.1351,-72.6316
"Hampshire, MA",Hampshire,MA,1322.0642123091986,42.3402,-72.6638
"Hampshire, WV",Hampshire,WV,226.45039495003533,39.3171,-78.6141
"Hampton, SC",Hampton,SC,302.04283304792534,32.7763,-81.1407
"Hampton City, VA",Hampton City,VA,1741.056442235683,37.0554,-76.3632
"Hancock, GA",Hancock,GA,159.64246756381908,33.2704,-83.0007
"Hancock, IA",Hancock,IA,73.84144876011226,43.0819,-93.7343
"Hancock, IL",Hancock,IL,186.046259747379,40.4037,-91.1647
"Hancock, IN",Hancock,IN,254.24917184758056,39.8236,-85.7733
"Hancock, KY",Hancock,KY,101.85068459800114,37.8415,-86.7779
"Hancock, ME",Hancock,ME,416.6476624279016,44.6647,-68.3584
"Hancock, MS",Hancock,MS,423.84243541007805,30.4165,-89.489
"Hancock, OH",Hancock,OH,587.8446110783548,41.0019,-83.6665
"Hancock, TN",Hancock,TN,194.04035059624906,36.5236,-83.2219
"Hancock, WV",Hancock,WV,444.4556077443112,40.5219,-80.5739
"Hand, SD",Hand,SD,11.039481799848359,44.5478,-99.0049
"Hanover, VA",Hanover,VA,405.45424490805857,37.7601,-77.491
"Hansford, TX",Hansford,TX,15.040719194368,36.2774,-101.3546
"Hanson, SD",Hanson,SD,4.24188934065703,43.6748,-97.7873
"Haralson, GA",Haralson,GA,359.64439359908977,33.7942,-85.211
"Hardee, FL",Hardee,FL,421.652207455835,27.4927,-81.81
"Hardeman, TN",Hardeman,TN,337.4405722925743,35.2068,-88.9931
"Hardeman, TX",Hardeman,TX,33.83919650023199,34.2902,-99.7457
"Hardin, IA",Hardin,IA,117.4401835407226,42.3839,-93.2404
"Hardin, IL",Hardin,IL,53.254058877797114,37.5182,-88.2668
"Hardin, KY",Hardin,KY,836.0490547720557,37.6979,-85.9634
"Hardin, OH",Hardin,OH,298.24527648561207,40.6616,-83.6595
"Hardin, TN",Hardin,TN,346.8376281568258,35.1987,-88.1845
"Hardin, TX",Hardin,TX,570.2437932692969,30.3324,-94.3902
"Harding, NM",Harding,NM,2.8435461456117292,35.8579,-103.8203
"Harding, SD",Harding,SD,0.645108664093122,45.5803,-103.4958
"Hardy, WV",Hardy,WV,218.24889457332202,39.0075,-78.858
"Harford, MD",Harford,MD,1502.853002052836,39.5611,-76.3171
"Harlan, KY",Harlan,KY,572.2483047702368,36.8569,-83.218
"Harlan, NE",Harlan,NE,13.44829145072469,40.1765,-99.4046
"Harmon, OK",Harmon,OK,38.84043737654102,34.7441,-99.8462
"Harnett, NC",Harnett,NC,1399.449032715278,35.3689,-78.8693
"Harney, OR",Harney,OR,139.85149876060373,43.0641,-118.968
"Harper, KS",Harper,KS,50.44153316006959,37.1916,-98.0755
"Harper, OK",Harper,OK,16.843749623117475,36.7888,-99.6673
"Harris, GA",Harris,GA,266.6435646677525,32.736,-84.9089
"Harris, TX",Harris,TX,45731.247423003406,29.8578,-95.3938
"Harrison, IA",Harrison,IA,73.44339357878586,41.6829,-95.8168
"Harrison, IN",Harrison,IN,178.24530473801408,38.1951,-86.1115
"Harrison, KY",Harrison,KY,231.24014410309687,38.4418,-84.3314
"Harrison, MO",Harrison,MO,83.64595091441443,40.3547,-93.992
"Harrison, MS",Harrison,MS,2442.443644294657,30.5122,-89.116
"Harrison, OH",Harrison,OH,172.64527534272534,40.2938,-81.0911
"Harrison, TX",Harrison,TX,700.643829105795,32.5481,-94.3715
"Harrison, WV",Harrison,WV,763.4527268407159,39.2835,-80.3799
"Harrisonburg City, VA",Harrisonburg City,VA,365.8508183214854,38.4362,-78.8735
"Hart, GA",Hart,GA,235.63721657148366,34.3509,-82.9642
"Hart, KY",Hart,KY,239.84061890270644,37.2999,-85.8847
"Hartley, TX",Hartley,TX,17.643003142745027,35.84,-102.6029
"Harvey, KS",Harvey,KS,149.2465250700581,38.0432,-97.4272
"Haskell, KS",Haskell,KS,7.240453857966645,37.5622,-100.8712
"Haskell, OK",Haskell,OK,188.25053837517734,35.2248,-95.1166
"Haskell, TX",Haskell,TX,75.04218889266998,33.1782,-99.7303
"Hatillo Municipio, 72",Hatillo Municipio,72,0.03695964927554551,39.8283,-98.5795
"Hawaii, HI",Hawaii,HI,2617.8629306479575,19.5984,-155.5183
"Hawkins, TN",Hawkins,TN,641.0403856233693,36.4412,-82.9447
"Hayes, NE",Hayes,NE,3.4493312231272633,40.5248,-101.0619
"Hays, TX",Hays,TX,1051.0507572949862,30.0579,-98.0312
"Haywood, NC",Haywood,NC,689.0474658617256,35.556,-82.9822
"Haywood, TN",Haywood,TN,397.0351035230541,35.5832,-89.2838
"Heard, GA",Heard,GA,234.0423928782725,33.297,-85.1283
"Hemphill, TX",Hemphill,TX,12.04726642536094,35.8376,-100.2706
"Hempstead, AR",Hempstead,AR,135.6393191891721,33.7354,-93.6684
"Henderson, IL",Henderson,IL,55.445827998560574,40.818,-90.9251
"Henderson, KY",Henderson,KY,537.4493145256716,37.7958,-87.5729
"Henderson, NC",Henderson,NC,915.0545899133307,35.3363,-82.48
"Henderson, TN",Henderson,TN,367.63841639946145,35.6542,-88.388
"Henderson, TX",Henderson,TX,842.6439339288113,32.2119,-95.8536
"Hendricks, IN",Hendricks,IN,437.85468824520007,39.7695,-86.51
"Hendry, FL",Hendry,FL,502.04754696829923,26.5535,-81.1659
"Hennepin, MN",Hennepin,MN,8416.46452048099,45.0046,-93.477
"Henrico, VA",Henrico,VA,2158.25467989519,37.538,-77.4058
"Henry, AL",Henry,AL,187.24237478136322,31.5147,-85.2414
"Henry, GA",Henry,GA,1676.0497022421205,33.453,-84.1542
"Henry, IA",Henry,IA,133.4409764267964,40.988,-91.5445
"Henry, IL",Henry,IL,484.04960408536937,41.3531,-90.1314
"Henry, IN",Henry,IN,352.6415538115457,39.9311,-85.3964
"Henry, KY",Henry,KY,123.64704979522645,38.4485,-85.1189
"Henry, MO",Henry,MO,247.84204979348127,38.3852,-93.7928
"Henry, OH",Henry,OH,138.444328413518,41.3339,-84.0682
"Henry, TN",Henry,TN,341.83804702790945,36.3318,-88.3013
"Henry, VA",Henry,VA,650.4451672805997,36.6828,-79.874
"Herkimer, NY",Herkimer,NY,698.8475112419399,43.4193,-74.9624
"Hernando, FL",Hernando,FL,2100.0512026113065,28.5537,-82.424
"Hertford, NC",Hertford,NC,425.84657604439013,36.3591,-76.982
"Hettinger, ND",Hettinger,ND,9.23953956244862,46.4325,-102.4603
"Hickman, KY",Hickman,KY,44.844347772662225,36.6781,-88.9761
"Hickman, TN",Hickman,TN,240.04031634247767,35.8032,-87.4733
"Hickory, MO",Hickory,MO,73.04837874689112,37.9408,-93.3207
"Hidalgo, NM",Hidalgo,NM,59.24823159640848,31.914,-108.7148
"Hidalgo, TX",Hidalgo,TX,14888.045497583887,26.3969,-98.1812
"Highland, OH",Highland,OH,524.0474604646798,39.1847,-83.601
"Highland, VA",Highland,VA,11.239663151781567,38.3623,-79.5686
"Highlands, FL",Highlands,FL,1371.2495519661104,27.3433,-81.341
"Hill, MT",Hill,MT,167.24513367773267,48.6282,-110.1112
"Hill, TX",Hill,TX,320.640671317136,31.9907,-97.1324
"Hillsborough, FL",Hillsborough,FL,14928.651733657636,27.9292,-82.3088
"Hillsborough, NH",Hillsborough,NH,2072.450219551758,42.9153,-71.7161
"Hillsdale, MI",Hillsdale,MI,422.6458127409374,41.8878,-84.5929
"Hinds, MS",Hinds,MS,2632.0452859723146,32.2667,-90.4429
"Hinsdale, CO",Hinsdale,CO,8.844640329686793,37.8213,-107.3003
"Hitchcock, NE",Hitchcock,NE,15.050827755067578,40.1763,-101.0423
"Hocking, OH",Hocking,OH,413.2458834000431,39.4971,-82.4793
"Hockley, TX",Hockley,TX,214.84186022354186,33.6076,-102.3432
"Hodgeman, KS",Hodgeman,KS,4.443744632797738,38.0875,-99.8979
"Hoke, NC",Hoke,NC,723.049835844753,35.0175,-79.2373
"Holmes, FL",Holmes,FL,195.4455617150195,30.8679,-85.814
"Holmes, MS",Holmes,MS,368.4465112353533,33.1235,-90.0921
"Holmes, OH",Holmes,OH,102.63953412343905,40.5612,-81.9293
"Holt, MO",Holt,MO,23.24614683721076,40.0944,-95.2155
"Holt, NE",Holt,NE,66.44904207927333,42.4557,-98.7838
"Honolulu County/City, HI",Honolulu County/City,HI,0.029298841953277588,21.4899,-158.0739
"Hood, TX",Hood,TX,232.84887627773801,32.4299,-97.8323
"Hood River, OR",Hood River,OR,230.2631050768725,45.519,-121.6511
"Hooker, NE",Hooker,NE,0.0535669413445132,41.9161,-101.1353
"Hoonah-Angoon Census Area, AK",Hoonah-Angoon Census Area,AK,27.051163759868274,58.287,-135.6393
"Hopewell City, VA",Hopewell City,VA,470.65340370747856,37.2915,-77.2985
"Hopkins, KY",Hopkins,KY,478.8415871724517,37.3088,-87.5408
"Hopkins, TX",Hopkins,TX,225.04053904030113,33.1496,-95.564
"Hormigueros Municipio, 72",Hormigueros Municipio,72,0.043259649275545514,39.8283,-98.5795
"Horry, SC",Horry,SC,2188.645502201655,33.9216,-78.9969
"Hot Spring, AR",Hot Spring,AR,284.2411846978919,34.3177,-92.9461
"Hot Springs, WY",Hot Springs,WY,33.65361809133042,43.719,-108.4422
"Houghton, MI",Houghton,MI,238.65347943197423,46.8976,-88.6875
"Houston, AL",Houston,AL,1361.4429382702347,31.1532,-85.3025
"Houston, GA",Houston,GA,1319.442424690364,32.459,-83.6662
"Houston, MN",Houston,MN,64.85166137092301,43.6714,-91.4929
"Houston, TN",Houston,TN,102.24016944803277,36.286,-87.7171
"Houston, TX",Houston,TX,274.64058782792733,31.3177,-95.4227
"Howard, AR",Howard,AR,122.04175483629662,34.0889,-93.9936
"Howard, IA",Howard,IA,46.24063631312583,43.3568,-92.3172
"Howard, IN",Howard,IN,755.853142659669,40.4836,-86.1169
"Howard, MD",Howard,MD,1282.4634463591083,39.2507,-76.9312
"Howard, MO",Howard,MO,62.045560066159126,39.1425,-92.6963
"Howard, NE",Howard,NE,39.85024418691781,41.22,-98.5171
"Howard, TX",Howard,TX,284.84223999821194,32.3062,-101.4356
"Howell, MO",Howell,MO,524.840825471732,36.774,-91.8865
"Hubbard, MN",Hubbard,MN,162.245582713283,47.1086,-94.9167
"Hudson, NJ",Hudson,NJ,8167.2661876979155,40.7408,-74.0751
"Hudspeth, TX",Hudspeth,TX,42.64340206079717,31.4562,-105.3865
"Huerfano, CO",Huerfano,CO,84.84939586916289,37.6847,-104.9606
"Hughes, OK",Hughes,OK,114.25008212267414,35.0484,-96.2502
"Hughes, SD",Hughes,SD,94.64031152524856,44.389,-99.996
"Humacao Municipio, 72",Humacao Municipio,72,0.04505964927554551,39.8283,-98.5795
"Humboldt, CA",Humboldt,CA,2011.65997280685,40.6993,-123.8756
"Humboldt, IA",Humboldt,IA,89.04174937737235,42.7765,-94.2072
"Humboldt, NV",Humboldt,NV,142.0496632982507,41.4068,-118.112
"Humphreys, MS",Humphreys,MS,194.24589019822218,33.1287,-90.5266
"Humphreys, TN",Humphreys,TN,141.03950967004113,36.0408,-87.7756
"Hunt, TX",Hunt,TX,952.848685744547,33.1236,-96.0855
"Hunterdon, NJ",Hunterdon,NJ,289.46626122809425,40.5673,-74.9122
"Huntingdon, PA",Huntingdon,PA,433.04786292002893,40.4169,-77.9812
"Huntington, IN",Huntington,IN,339.24061903444687,40.8292,-85.4881
"Huron, MI",Huron,MI,286.2470350102856,43.8333,-83.019
"Huron, OH",Huron,OH,498.84128717847057,41.1463,-82.598
"Hutchinson, SD",Hutchinson,SD,40.638177952478635,43.3349,-97.7544
"Hutchinson, TX",Hutchinson,TX,102.84431184541444,35.84,-101.3547
"Hyde, NC",Hyde,NC,99.64861370891396,35.5306,-76.2517
"Hyde, SD",Hyde,SD,3.4402082726510685,44.5473,-99.4871
"Iberia Parish, LA",Iberia Parish,LA,1255.4447402780986,29.8967,-91.7308
"Iberville Parish, LA",Iberville Parish,LA,399.449549372505,30.2586,-91.3495
"Ida, IA",Ida,IA,44.239494130793624,42.3869,-95.5135
"Idaho, ID",Idaho,ID,53.44732110980786,45.8441,-115.4675
"Imperial, CA",Imperial,CA,2607.298830322819,33.0395,-115.3653
"Independence, AR",Independence,AR,380.4368847589499,35.7416,-91.5697
"Indian River, FL",Indian River,FL,1039.0536446933588,27.6943,-80.6064
"Indiana, PA",Indiana,PA,973.2495708045846,40.652,-79.0876
"Ingham, MI",Ingham,MI,2783.6517296148118,42.5971,-84.3735
"Inyo, CA",Inyo,CA,121.45404883377817,36.5111,-117.4107
"Ionia, MI",Ionia,MI,591.8448332250542,42.9451,-85.0746
"Iosco, MI",Iosco,MI,335.0519248964407,44.3559,-83.6359
"Iowa, IA",Iowa,IA,104.0504662493253,41.6863,-92.0655
"Iowa, WI",Iowa,WI,159.44538410604733,43.0005,-90.1354
"Iredell, NC",Iredell,NC,1104.249055744782,35.8071,-80.8734
"Irion, TX",Irion,TX,4.648492547985063,31.3039,-100.9824
"Iron, MI",Iron,MI,137.856728568309,46.2087,-88.5305
"Iron, MO",Iron,MO,137.0495138480875,37.5552,-90.7735
"Iron, UT",Iron,UT,345.6453574858632,37.8592,-113.2895
"Iron, WI",Iron,WI,80.85130658581188,46.2623,-90.2421
"Iroquois, IL",Iroquois,IL,327.24816756196367,40.7473,-87.8243
"Irwin, GA",Irwin,GA,92.63695984786101,31.6022,-83.2764
"Isabela Municipio, 72",Isabela Municipio,72,0.03815964927554551,39.8283,-98.5795
"Isabella, MI",Isabella,MI,568.2488102278076,43.6406,-84.8468
"Isanti, MN",Isanti,MN,211.26355283107023,45.5615,-93.2951
"Island, WA",Island,WA,475.4548267867985,48.163,-122.5481
"Isle Of Wight, VA",Isle Of Wight,VA,242.8542228449049,36.8912,-76.7259
"Issaquena, MS",Issaquena,MS,30.052819590320514,32.7414,-90.9892
"Itasca, MN",Itasca,MN,391.0481094887836,47.5095,-93.6319
"Itawamba, MS",Itawamba,MS,132.83826592779602,34.28,-88.3613
"Izard, AR",Izard,AR,120.64701106941068,36.0949,-91.9134
"Jack, TX",Jack,TX,77.44723475607488,33.2335,-98.1725
"Jackson, AL",Jackson,AL,574.2423096690112,34.7795,-85.9993
"Jackson, AR",Jackson,AR,244.83883144604616,35.5992,-91.2145
"Jackson, CO",Jackson,CO,17.244724493791264,40.6664,-106.3428
"Jackson, FL",Jackson,FL,684.6449391661677,30.7954,-85.2155
"Jackson, GA",Jackson,GA,435.44047431555373,34.134,-83.5665
"Jackson, IA",Jackson,IA,170.64330085652648,42.1717,-90.5743
"Jackson, IL",Jackson,IL,841.8542211457553,37.7851,-89.3821
"Jackson, IN",Jackson,IN,314.6404709067225,38.9064,-86.0375
"Jackson, KS",Jackson,KS,54.84575474646917,39.4168,-95.7937
"Jackson, KY",Jackson,KY,293.44889830945726,37.4198,-84.0058
"Jackson, MI",Jackson,MI,1665.0519013931053,42.2485,-84.4234
"Jackson, MN",Jackson,MN,50.64369743674816,43.6742,-95.1541
"Jackson, MO",Jackson,MO,6209.651895932056,39.0085,-94.3461
"Jackson, MS",Jackson,MS,1096.0451953079457,30.5425,-88.6358
"Jackson, NC",Jackson,NC,378.84498519879224,35.2876,-83.1408
"Jackson, OH",Jackson,OH,499.84885927005973,39.0197,-82.6184
"Jackson, OK",Jackson,OK,277.842774197864,34.588,-99.4148
"Jackson, OR",Jackson,OR,3196.0643400168724,42.4322,-122.7285
"Jackson, SD",Jackson,SD,42.647000384142764,43.6943,-101.6281
"Jackson, TN",Jackson,TN,153.83755412855464,36.3592,-85.6732
"Jackson, TX",Jackson,TX,168.84401018699276,28.9542,-96.5776
"Jackson, WI",Jackson,WI,229.0456087112503,44.3192,-90.8053
"Jackson, WV",Jackson,WV,415.2531966430137,38.8345,-81.6748
"Jackson Parish, LA",Jackson Parish,LA,190.04479197513547,32.3021,-92.5579
"James City, VA",James City,VA,353.66301696963626,37.3289,-76.7789
"Jasper, GA",Jasper,GA,144.04296413982286,33.3165,-83.688
"Jasper, IA",Jasper,IA,270.2428649379277,41.686,-93.0538
"Jasper, IL",Jasper,IL,84.8488062593569,39.0101,-88.1538
"Jasper, IN",Jasper,IN,146.45092362896153,41.023,-87.1161
"Jasper, MO",Jasper,MO,1423.444132030434,37.2036,-94.3406
"Jasper, MS",Jasper,MS,178.03962588439023,32.0191,-89.1189
"Jasper, SC",Jasper,SC,322.64650933045516,32.4375,-81.0317
"Jasper, TX",Jasper,TX,393.8485291864206,30.744,-94.0251
"Jay, IN",Jay,IN,144.4408293783042,40.4379,-85.0056
"Jayuya Municipio, 72",Jayuya Municipio,72,0.05555964927554551,39.8283,-98.5795
"Jeff Davis, GA",Jeff Davis,GA,168.0392025265732,31.8056,-82.6368
"Jeff Davis, TX",Jeff Davis,TX,18.646887260515328,30.7154,-104.14
"Jefferson, AL",Jefferson,AL,7492.649376246903,33.5543,-86.8964
"Jefferson, AR",Jefferson,AR,745.8490840783612,34.2683,-91.9304
"Jefferson, CO",Jefferson,CO,2443.063106702361,39.5864,-105.2505
"Jefferson, FL",Jefferson,FL,243.44564174572977,30.4375,-83.8953
"Jefferson, GA",Jefferson,GA,279.4390427383708,33.0549,-82.4182
"Jefferson, IA",Jefferson,IA,223.24135461741224,41.0318,-91.9489
"Jefferson, ID",Jefferson,ID,100.64458658830794,43.8201,-112.3113
"Jefferson, IL",Jefferson,IL,517.0515848672331,38.3005,-88.924
"Jefferson, IN",Jefferson,IN,254.84134997671828,38.7858,-85.4386
"Jefferson, KS",Jefferson,KS,45.848991699797814,39.2358,-95.3834
"Jefferson, KY",Jefferson,KY,6908.249176104213,38.1872,-85.6591
"Jefferson, MO",Jefferson,MO,1257.8485970096924,38.261,-90.5377
"Jefferson, MS",Jefferson,MS,92.45863408604647,31.7342,-91.0373
"Jefferson, MT",Jefferson,MT,61.84825023099472,46.1485,-112.0938
"Jefferson, NE",Jefferson,NE,70.8471676304621,40.1757,-97.1427
"Jefferson, NY",Jefferson,NY,1532.6567658144534,44.0495,-75.9203
"Jefferson, OH",Jefferson,OH,835.8491499529031,40.385,-80.761
"Jefferson, OK",Jefferson,OK,103.24903367906013,34.111,-97.8358
"Jefferson, OR",Jefferson,OR,450.6608862456257,44.6294,-121.1761
"Jefferson, PA",Jefferson,PA,527.2440250921592,41.1282,-78.9994
"Jefferson, TN",Jefferson,TN,480.4388309689376,36.051,-83.4463
"Jefferson, TX",Jefferson,TX,2959.6466564353427,29.8841,-94.1629
"Jefferson, WA",Jefferson,WA,284.2540463798768,47.7486,-123.5964
"Jefferson, WI",Jefferson,WI,604.647635902804,43.0208,-88.7759
"Jefferson, WV",Jefferson,WV,487.4608496036478,39.3076,-77.8628
"Jefferson Davis, MS",Jefferson Davis,MS,172.83937728837992,31.5697,-89.823
"Jefferson Davis Parish, LA",Jefferson Davis Parish,LA,458.2449937704018,30.2677,-92.8141
"Jefferson Parish, LA",Jefferson Parish,LA,5022.048863182653,29.7882,-90.1276
"Jenkins, GA",Jenkins,GA,118.23681845129965,32.7924,-81.9635
"Jennings, IN",Jennings,IN,194.4410682244039,38.9969,-85.628
"Jerauld, SD",Jerauld,SD,9.239816436178486,44.0663,-98.6297
"Jerome, ID",Jerome,ID,133.44242580651382,42.6899,-114.2639
"Jersey, IL",Jersey,IL,189.84940679171274,39.0855,-90.3565
"Jessamine, KY",Jessamine,KY,359.2473737846171,37.872,-84.5809
"Jewell, KS",Jewell,KS,13.845382308623128,39.7847,-98.2183
"Jim Hogg, TX",Jim Hogg,TX,77.64634792260685,27.0434,-98.6973
"Jim Wells, TX",Jim Wells,TX,556.8448414155242,27.7314,-98.0899
"Jo Daviess, IL",Jo Daviess,IL,146.6441385228215,42.3658,-90.2126
"Johnson, AR",Johnson,AR,262.04313017596536,35.5697,-93.4602
"Johnson, GA",Johnson,GA,174.63812606154764,32.7015,-82.6601
"Johnson, IA",Johnson,IA,773.4507966809084,41.6715,-91.5881
"Johnson, IL",Johnson,IL,107.65219590212928,37.4597,-88.8809
"Johnson, IN",Johnson,IN,739.4504362563516,39.49,-86.1016
"Johnson, KS",Johnson,KS,1045.258126332267,38.8838,-94.8223
"Johnson, KY",Johnson,KY,419.04600891994994,37.8466,-82.8315
"Johnson, MO",Johnson,MO,309.04421986224094,38.7441,-93.8064
"Johnson, NE",Johnson,NE,36.446061204149984,40.3926,-96.2651
"Johnson, TN",Johnson,TN,230.64155118172522,36.4549,-81.8518
"Johnson, TX",Johnson,TX,917.8497519830838,32.379,-97.3666
"Johnson, WY",Johnson,WY,12.453582480861002,44.0388,-106.5847
"Johnston, NC",Johnston,NC,1982.4461182380264,35.5178,-78.3657
"Johnston, OK",Johnston,OK,140.84671325390653,34.3165,-96.6606
"Jones, GA",Jones,GA,312.84096375074324,33.0251,-83.5605
"Jones, IA",Jones,IA,162.24509776695135,42.1212,-91.1315
"Jones, MS",Jones,MS,801.2370337515647,31.6225,-89.1688
"Jones, NC",Jones,NC,156.04806354691107,35.0217,-77.3552
"Jones, SD",Jones,SD,1.2429199351681075,43.9606,-100.6897
"Jones, TX",Jones,TX,177.0428136250397,32.7399,-99.8788
"Josephine, OR",Josephine,OR,1756.6709949470892,42.3655,-123.5555
"Juab, UT",Juab,UT,44.64687441350469,39.7027,-112.7848
"Juana Diaz Municipio, 72",Juana Diaz Municipio,72,0.03977053612470627,39.8283,-98.5795
"Judith Basin, MT",Judith Basin,MT,13.442736458147245,47.0454,-110.266
"Juncos Municipio, 72",Juncos Municipio,72,0.03461394086480141,39.8283,-98.5795
"Juneau, WI",Juneau,WI,312.44461980552245,43.9246,-90.1138
"Juneau Borough/City, AK",Juneau Borough/City,AK,0.031568657606840134,58.455,-134.1734
"Juniata, PA",Juniata,PA,181.84864935479774,40.5311,-77.4022
"Kalamazoo, MI",Kalamazoo,MI,2202.4524513388205,42.2455,-85.5312
"Kalkaska, MI",Kalkaska,MI,237.4472137325793,44.6847,-85.0902
"Kanabec, MN",Kanabec,MN,120.04968729215177,45.9452,-93.2934
"Kanawha, WV",Kanawha,WV,2389.458305132381,38.3365,-81.5281
"Kandiyohi, MN",Kandiyohi,MN,373.84375272446516,45.1524,-95.0047
"Kane, IL",Kane,IL,3945.6607297283194,41.9388,-88.4286
"Kane, UT",Kane,UT,18.45146291215451,37.2851,-111.8878
"Kankakee, IL",Kankakee,IL,1361.05605991601,41.1377,-87.8618
"Karnes, TX",Karnes,TX,162.84110899154467,28.9057,-97.8594
"Kauai, HI",Kauai,HI,557.8715762842776,22.04,-159.5961
"Kaufman, TX",Kaufman,TX,953.2528514866145,32.5993,-96.2878
"Kay, OK",Kay,OK,591.0463128520219,36.818,-97.1439
"Kearney, NE",Kearney,NE,15.04520878913167,40.5067,-98.948
"Kearny, KS",Kearny,KS,23.040994135574287,38.0003,-101.3199
"Keith, NE",Keith,NE,58.04865812720885,41.1988,-101.6615
"Kemper, MS",Kemper,MS,102.2428638532047,32.7546,-88.6412
"Kenai Peninsula Borough, AK",Kenai Peninsula Borough,AK,410.25796029691776,60.2654,-151.5651
"Kendall, IL",Kendall,IL,723.6622563194636,41.5906,-88.4288
"Kendall, TX",Kendall,TX,148.0517775959849,29.9447,-98.7115
"Kenedy, TX",Kenedy,TX,0.24924942119410104,26.9285,-97.7017
"Kennebec, ME",Kennebec,ME,1431.0416138652345,44.4091,-69.7673
"Kenosha, WI",Kenosha,WI,1655.8519482093477,42.5769,-88.0424
"Kent, DE",Kent,DE,1997.4592079755644,39.086,-75.5686
"Kent, MD",Kent,MD,196.84760107736304,39.2556,-76.039
"Kent, MI",Kent,MI,5169.8520178543795,43.0322,-85.5493
"Kent, RI",Kent,RI,1814.0529405949972,41.6722,-71.5932
"Kent, TX",Kent,TX,9.043488367515515,33.1813,-100.7776
"Kenton, KY",Kenton,KY,934.4510558682589,38.9334,-84.5333
"Keokuk, IA",Keokuk,IA,79.84156279581339,41.3365,-92.1786
"Kern, CA",Kern,CA,10710.659564350033,35.3426,-118.7301
"Kerr, TX",Kerr,TX,309.4415989862718,30.0615,-99.35
"Kershaw, SC",Kershaw,SC,644.0447317068409,34.3388,-80.5902
"Ketchikan Gateway Borough, AK",Ketchikan Gateway Borough,AK,102.25840858497848,55.5852,-130.9282
"Kewaunee, WI",Kewaunee,WI,93.64545426962583,44.5161,-87.6153
"Keweenaw, MI",Keweenaw,MI,16.853432139334593,47.628,-88.4346
"Keya Paha, NE",Keya Paha,NE,0.8536526198247157,42.8789,-99.7124
"Kidder, ND",Kidder,ND,7.44119457299354,46.9801,-99.7801
"Kimball, NE",Kimball,NE,34.249768239195824,41.1978,-103.7149
"Kimble, TX",Kimble,TX,27.63917614525637,30.4868,-99.7487
"King, TX",King,TX,0.0374123431528795,33.6165,-100.2558
"King, WA",King,WA,15130.271972433246,47.4903,-121.8052
"King And Queen, VA",King And Queen,VA,74.64366886173362,37.7186,-76.8953
"King George, VA",King George,VA,144.4521028096266,38.2733,-77.1572
"King William, VA",King William,VA,115.65199815730513,37.7066,-77.0885
"Kingfisher, OK",Kingfisher,OK,78.64442551352724,35.9454,-97.9421
"Kingman, KS",Kingman,KS,42.044717090387415,37.5589,-98.1363
"Kings, CA",Kings,CA,1625.8623609979838,36.0752,-119.8155
"Kings, NY",Kings,NY,44394.28389519978,40.6413,-73.9383
"Kingsbury, SD",Kingsbury,SD,13.442244169855151,44.3696,-97.4915
"Kinney, TX",Kinney,TX,54.63970425942306,29.3502,-100.418
"Kiowa, CO",Kiowa,CO,17.638611748559132,38.4326,-102.7402
"Kiowa, KS",Kiowa,KS,10.64089419344676,37.5582,-99.2861
"Kiowa, OK",Kiowa,OK,148.443137405137,34.9164,-98.9809
"Kit Carson, CO",Kit Carson,CO,65.63997687386622,39.3055,-102.603
"Kitsap, WA",Kitsap,WA,2076.259901918799,47.6127,-122.6762
"Kittitas, WA",Kittitas,WA,451.6507609472843,47.1244,-120.6799
"Kittson, MN",Kittson,MN,16.84313009726098,48.7766,-96.7829
"Klamath, OR",Klamath,OR,1320.0615942584363,42.6864,-121.6501
"Kleberg, TX",Kleberg,TX,484.04506683471226,27.4337,-97.7273
"Klickitat, WA",Klickitat,WA,245.85676545456081,45.8738,-120.7891
"Knott, KY",Knott,KY,298.8465917194473,37.354,-82.9541
"Knox, IL",Knox,IL,711.4488121663526,40.9318,-90.2132
"Knox, IN",Knox,IN,394.0409264075702,38.6891,-87.418
"Knox, KY",Knox,KY,708.2459220063298,36.8906,-83.854
"Knox, ME",Knox,ME,344.0449527549241,44.141,-69.1687
"Knox, MO",Knox,MO,20.047908424721395,40.1283,-92.1481
"Knox, NE",Knox,NE,52.849290624110566,42.6368,-97.8919
"Knox, OH",Knox,OH,454.244201831376,40.3988,-82.4215
"Knox, TN",Knox,TN,3712.6418968209946,35.9932,-83.9371
"Knox, TX",Knox,TX,24.039667181410348,33.6061,-99.7414
"Kodiak Island Borough, AK",Kodiak Island Borough,AK,78.06016026826471,57.6791,-153.7992
"Koochiching, MN",Koochiching,MN,105.64724112619649,48.2453,-93.7834
"Kootenai, ID",Kootenai,ID,1000.4514621800644,47.6744,-116.7018
"Kosciusko, IN",Kosciusko,IN,375.44277480485255,41.2441,-85.8607
"Kossuth, IA",Kossuth,IA,75.04073120446941,43.2041,-94.2067
"Kusilvak Census Area, AK",Kusilvak Census Area,AK,192.49630640980598,62.1547,-163.3812
"La Crosse, WI",La Crosse,WI,887.6496555409784,43.9066,-91.1152
"La Paz, AZ",La Paz,AZ,250.65821955978475,33.7294,-113.9815
"La Plata, CO",La Plata,CO,337.8514084202717,37.2866,-107.8433
"La Salle, TX",La Salle,TX,57.04193915757806,28.3452,-99.0996
"Labette, KS",Labette,KS,164.84354987227738,37.1913,-95.2976
"Lac Qui Parle, MN",Lac Qui Parle,MN,49.04019018149293,44.9955,-96.1735
"Lackawanna, PA",Lackawanna,PA,3101.6506163727004,41.4367,-75.6092
"Laclede, MO",Laclede,MO,459.6427294138339,37.6583,-92.5903
"Lafayette, AR",Lafayette,AR,81.84415850984442,33.2416,-93.607
"Lafayette, FL",Lafayette,FL,92.84752854389995,29.9855,-83.1811
"Lafayette, MO",Lafayette,MO,240.04898660421418,39.0655,-93.7854
"Lafayette, MS",Lafayette,MS,155.4444395592024,34.3568,-89.485
"Lafayette, WI",Lafayette,WI,128.24009120491885,42.6605,-90.1317
"Lafayette Parish, LA",Lafayette Parish,LA,2402.846668658903,30.2068,-92.0639
"Lafourche Parish, LA",Lafourche Parish,LA,1231.8459514517297,29.5662,-90.4256
"Lagrange, IN",Lagrange,IN,110.64402557166248,41.6426,-85.4265
"Lajas Municipio, 72",Lajas Municipio,72,0.05405964927554551,39.8283,-98.5795
"Lake, CA",Lake,CA,1106.866514076838,39.1,-122.7534
"Lake, CO",Lake,CO,35.444530996121806,39.2025,-106.3448
"Lake, FL",Lake,FL,3153.2511221223454,28.7615,-81.7113
"Lake, IL",Lake,IL,4538.863374641488,42.3233,-88.0037
"Lake, IN",Lake,IN,4995.852102193692,41.4167,-87.3821
"Lake, MI",Lake,MI,180.0490216776326,43.9901,-85.8016
"Lake, MN",Lake,MN,84.64344514001077,47.6411,-91.4458
"Lake, MT",Lake,MT,299.0470915655499,47.6459,-114.0894
"Lake, OH",Lake,OH,1514.6450517041408,41.6963,-81.2372
"Lake, OR",Lake,OR,121.45297777623848,42.7935,-120.3874
"Lake, SD",Lake,SD,50.24079884925367,44.0221,-97.1294
"Lake, TN",Lake,TN,122.43862574111152,36.3352,-89.4935
"Lake And Peninsula Borough, AK",Lake And Peninsula Borough,AK,18.453748611555863,58.6548,-156.1891
"Lake Of The Woods, MN",Lake Of The Woods,MN,16.44672726655952,48.7712,-94.9046
"Lamar, AL",Lamar,AL,185.84067352792488,33.7791,-88.0969
"Lamar, GA",Lamar,GA,212.0430938494321,33.0765,-84.1395
"Lamar, MS",Lamar,MS,504.4451943106977,31.206,-89.5087
"Lamar, TX",Lamar,TX,509.6407870627864,33.6673,-95.5712
"Lamb, TX",Lamb,TX,136.44014251319973,34.0686,-102.3517
"Lamoille, VT",Lamoille,VT,218.04739183062347,44.607,-72.6419
"Lamoure, ND",Lamoure,ND,20.23886019034368,46.4569,-98.5355
"Lampasas, TX",Lampasas,TX,150.24368362745636,31.1962,-98.2415
"Lancaster, NE",Lancaster,NE,2217.2496445864713,40.7842,-96.6878
"Lancaster, PA",Lancaster,PA,3686.6547376566386,40.0424,-76.2477
"Lancaster, SC",Lancaster,SC,790.0462598171417,34.6867,-80.7055
"Lancaster, VA",Lancaster,VA,119.44918735212144,37.7345,-76.4632
"Lander, NV",Lander,NV,53.6552361563083,39.9337,-117.038
"Lane, KS",Lane,KS,4.046427348275828,38.4813,-100.4664
"Lane, OR",Lane,OR,5941.8644275887455,43.9387,-122.8479
